REPORTING YEAR,FACILITY NAME,GHGRP ID,REPORTED ADDRESS,LATITUDE,LONGITUDE,CITY NAME,COUNTY NAME,STATE,ZIP CODE,PARENT COMPANIES,GHG QUANTITY (METRIC TONS CO2e),SUBPARTS,Facility Id,FRS Id,Facility Name,City_x,State_x,Zip Code,Address_x,County_x,Latitude_x,Longitude_x,Primary NAICS Code,FRS_ID,FacilityName,Address_y,City_y,State_y,Zip,Latitude_y,Longitude_y,County_y,NAICS,SIC,FacilityID,Source
2017,David M Ratcliffe,1010949,5835 Highway 496,32.7976,-88.6057,De Kalb,KEMPER COUNTY,MS,39328,SOUTHERN CO (100%),38778,"C,D,G,PP",1010949,110038344002.0,David M Ratcliffe,De Kalb,MS,39328,5835 Highway 496,KEMPER COUNTY,32.8,-88.61,221112,issues,issues,issues,issues,issues,issues,issues,issues,issues,issues,issues,issues,issues
2017,Dyno Nobel Louisiana Ammonia LLC,1012698,10800 River Road,29.964789,-90.264625,Waggaman,JEFFERSON PARISH,LA,70094,DYNO NOBEL INC (100%),982061,"C,G,PP",1012698,110071071484.0,Dyno Nobel Louisiana Ammonia LLC,Waggaman,LA,70094,10800 River Road,JEFFERSON PARISH,29.96,-90.26,325311,issues,issues,issues,issues,issues,issues,issues,issues,issues,issues,issues,issues,issues
2017,Iowa Fertilizer Company,1012918,3550 180th Street,40.69,-91.23,Wever,LEE COUNTY,IA,52658,Iowa Fertilizer Co LLC (100%),1040432,"C,G,V",1012918,110055072424.0,Iowa Fertilizer Company,Wever,IA,52658,3550 180th Street,LEE COUNTY,40.69,-91.23,325311,issues,issues,issues,issues,issues,issues,issues,issues,issues,issues,issues,issues,issues
2017,PCS NITROGEN FERTILIZER LP - GEISMAR AGRICULTURAL NITROGEN & PHOSPHATE PLANT,1003489,10886 Hwy 75,30.225784,-91.053154,GEISMAR,ASCENSION PARISH,LA,70734,PCS NITROGEN FERTILIZER LP (100%),949833,"C,G,PP,V,Z",1003489,110000748059.0,PCS NITROGEN FERTILIZER LP - GEISMAR AGRICULTURAL NITROGEN & PHOSPHATE PLANT,GEISMAR,LA,70734,10886 Hwy 75,ASCENSION PARISH,30.23,-91.05,325311,issues,issues,issues,issues,issues,issues,issues,issues,issues,issues,issues,issues,issues
2017,US Nitrogen LLC,1012789,471 Pottertown Road,36.1939,-83.00266,Midway,GREENE COUNTY,TN,37809,AUSTIN POWDER HOLDINGS CO (100%),104467,"C,G,PP,V",1012789,110058904618.0,US Nitrogen LLC,Midway,TN,37809,471 Pottertown Road,GREENE COUNTY,36.19,-83.0,325311,issues,issues,issues,issues,issues,issues,issues,issues,issues,issues,issues,issues,issues
