FacilityID,FlowName,Compartment,FlowAmount,Unit,DataReliability,Source,Year,FRS_ID,FacilityName,Address,City,State,Zip,Latitude,Longitude,County,NAICS,SIC,_merge
1000007,,,,,,GHGRP,,,AMERICAN GYPSUM - BERNALILLO (WALLBOARD) PLANT,1000 N HILL RD,BERNALILLO,NM,87004,35.329352,-106.525777,SANDOVAL,327420,,right_only
1000057,,,,,,GHGRP,,,Tri-Center Naniwa Energy,225 AMSTERDAM CT,MCCARRAN,NV,89434,39.5617,-119.5175,Storey,221112,,right_only
1000281,,,,,,GHGRP,,,"AES Deepwater, Inc.",701 LIGHT COMPANY ROAD,PASADENA,TX,77506,29.7192,-95.2278,Harris,221119,,right_only
1000420,,,,,,GHGRP,,,Equus Power I,289 BUFFALO AVE,FREEPORT,NY,11520,40.6447,-73.5683,Nassau,221112,,right_only
1000453,,,,,,GHGRP,,,"Calpine Gilroy Cogen, LP",1400 PACHECO PASS HWY,GILROY,CA,95020,37.0001,-121.5367,Santa Clara,221112,,right_only
1000528,,,,,,GHGRP,,,Wygen III,20 WYODAK ROAD,GILLETTE,WY,82718,44.2892,-105.3795,Campbell,221112,,right_only
1000576,,,,,,GHGRP,,,BLACK HILLS POWER AND LIGHT COMPANY,3363 HIGHWAY 16,OSAGE,WY,82723,43.969615,-104.411667,WESTON,221112,,right_only
1000596,,,,,,GHGRP,,,Greenleaf Energy Unit 2 LLC,875 North Walton Ave,Yuba City,CA,95993,39.142861,-121.636778,SUTTER,221112,,right_only
1000597,,,,,,GHGRP,,,"Calpine King City Cogen, LLC",750 Metz Road,King City,CA,93930,36.2257,-121.1279,MONTEREY,221112,,right_only
1000700,,,,,,GHGRP,,,Delta,3964 HWY 61,CLEVELAND,MS,38732,33.7947,-90.7139,Bolivar,221112,,right_only
1000701,,,,,,GHGRP,,,Natchez,152 STEAM PLANT ROAD,NATCHEZ,MS,39120,31.5987,-91.3464,Adams,221112,,right_only
1000727,,,,,,GHGRP,,,Sunrise,6300 VEGAS VALLEY ROAD,LAS VEGAS,NV,89122,36.1384,-115.036,Clark,221112,,right_only
1000764,,,,,,GHGRP,,,Ravenswood Generating Station,38-54 VERNON BLVD,LONG ISLAND CITY,NY,11101,40.7585,-73.9451,Queens,221112,,right_only
1000827,,,,,,GHGRP,,,Neil Simpson II (CT2),13151 HIGHWAY 51,GILLETTE,WY,82718,44.2853,-105.3841,Campbell,221112,,right_only
1000929,,,,,,GHGRP,,,Cedar Bayou,7705 WEST BAY ROAD,BAYTOWN,TX,77520,29.7483,-94.9272,Chambers,221112,,right_only
1000948,,,,,,GHGRP,,,Valley (TXU),1040 CR 1225,SAVOY,TX,75479,33.6281,-96.3678,Fannin,221112,,right_only
1000953,,,,,,GHGRP,,,C E Newman,525 E AVE B,GARLAND,TX,75040,32.9125,-96.6231,Dallas,221112,,right_only
1001003,,,,,,GHGRP,,,Olive,164 WEST MAGNOLIA BOULEVARD,BURBANK,CA,91502,34.1775,-118.3147,Los Angeles,221112,,right_only
1001039,,,,,,GHGRP,,,J T Deely,12940 S US Hwy 181,SAN ANTONIO,TX,78223,29.3072,-98.3228,Bexar,221112,,right_only
1001125,,,,,,GHGRP,,,Neil Simpson II,13151 HIGHWAY 51,GILLETTE,WY,82718,44.2853,-105.3841,Campbell,221112,,right_only
1001134,,,,,,GHGRP,,,Anaheim Combustion Turbine,3071 E Miraloma Ave,Anaheim,CA,92806,33.8539,-117.8561,Orange,221112,,right_only
1001211,,,,,,GHGRP,,,Elizabethtown Power,3100 WEST BROAD ST,ELIZABETHTOWN,NC,28337,34.6474,-78.6407,Bladen,221112,,right_only
1001212,,,,,,GHGRP,,,Lumberton Power,1866 HESTERTOWN ROAD,LUMBERTON,NC,28359,34.59,-78.9968,Robeson,221112,,right_only
1001227,,,,,,GHGRP,,,Las Vegas Cogeneration,1701 E ALEXANDER RD,NORTH LAS VEGAS,NV,89030,36.2317,-115.1235,Clark,221112,,right_only
1001235,,,,,,GHGRP,,,"Niagara Generation, LLC",5300 FRONTIER AVE,NIAGARA FALLS,NY,14304,43.0804,-79.0082,Niagara,221112,,right_only
1001271,,,,,,GHGRP,,,Ocean State Power II,1575 SHERMAN FARM ROAD,HARRISVILLE,RI,2830,42.0099,-71.6701,Providence,221112,,right_only
1001305,,,,,,GHGRP,,,Mustang Station,1937 COUNTY ROAD 390,DENVER CITY,TX,79323,32.9728,-102.7417,Yoakum,221112,,right_only
1001314,,,,,,GHGRP,,,Klamath Cogeneration Project,4940 Hwy 97 South,Klamath Falls,OR,97603,42.174,-121.8112,Klamath,221112,,right_only
1001320,,,,,,GHGRP,,,Calpine Sutter Energy Center,5029 SOUTH TOWNSHIP ROAD,YUBA CITY,CA,95993,39.0531,-121.6939,Sutter,221112,,right_only
1001348,,,,,,GHGRP,,,EAST CHICAGO RECOVERY INC,3210 WATLING ST,EAST CHICAGO,IN,46312,41.656321,-87.450142,LAKE COUNTY,331111,,right_only
1001383,,,,,,GHGRP,,,Tait Electric Generating Station,2101 ARBOR BOULEVARD,DAYTON,OH,45439,39.7286,-84.2106,Montgomery,221112,,right_only
1001389,,,,,,GHGRP,,,Atmos Energy Corporation - Kentucky,5430 LBJ Freeway,Dallas,TX,75240,32.92548,-96.81613,DALLAS,221210,,right_only
1001390,,,,,,GHGRP,,,Atmos Energy Corporation - Louisiana,5430 LBJ Freeway,Dallas,TX,75240,32.92548,-96.81613,DALLAS,221210,,right_only
1001411,,,,,,GHGRP,,,Indian River (55318),7800 SOUTH HIGHWAY US 1,TITUSVILLE,FL,32780,28.4933,-80.7825,Brevard,221112,,right_only
1001430,,,,,,GHGRP,,,Hamilton Moses,HWY 70,FORREST CITY,AR,72335,34.9806,-90.8722,Saint Francis,221112,,right_only
1001460,,,,,,GHGRP,,,Arapahoe,2601 S PLATTE RIVER DR,DENVER,CO,80223,39.67,-105.0028,Denver,221112,,right_only
1001463,,,,,,GHGRP,,,Valmont,1800 N 63RD ST,BOULDER,CO,80302,40.0195,-105.202,Boulder,221112,,right_only
1001482,,,,,,GHGRP,,,Cutler,14925 SW 67TH AVE,MIAMI,FL,33158,25.6321,-80.2989,Miami-Dade,221112,,right_only
1001485,,,,,,GHGRP,,,Riviera,200 300 BROADWAY,RIVIERA BEACH,FL,33404,26.7653,-80.0528,Palm Beach,221112,,right_only
1001601,,,,,,GHGRP,,,Louisiana 2,GULF STATES ROAD,BATON ROUGE,LA,70821,30.4903,-91.1875,East Baton Rouge,221112,,right_only
1001602,,,,,,GHGRP,,,R S Nelson,3500 HOUSTON RIVER ROAD,WESTLAKE,LA,70669,30.2861,-93.2917,Calcasieu,221112,,right_only
1001613,,,,,,GHGRP,,,Monroe,800 PARK AVE,MONROE,LA,71201,32.5278,-92.1278,Ouachita,221112,,right_only
1001833,,,,,,GHGRP,,,US Steel - Fairfield Tubular Operations,5700 VALLEY RD,FAIRFIELD,AL,35064,33.48063,-86.936717,JEFFERSON,331210,,right_only
1002120,,,,,,GHGRP,,,"PRAXAIR - WHITING, IN 5&6",2551 Dickey Road,East Chicago,IN,46312,41.668631,-87.472829,LAKE COUNTY,325120,,right_only
1002441,,,,,,GHGRP,,,Circular Butte/Jefferson County,1571 N 800 E,Terreton,ID,83450,43.85149,-112.53585,JEFFERSON COUNTY,562212,,right_only
1002611,,,,,,GHGRP,,,SUNOCO PARTNERS MARKETING & TERMINALS L.P. - MARCUS HOOK INDUSTRIAL COMPLEX,100 GREEN ST,MARCUS HOOK,PA,19061,39.8119,-75.424,DELAWARE,324110,,right_only
1002728,,,,,,GHGRP,,,BADGER CREEK LIMITED,34759 LENCIONI AVE,BAKERSFIELD,CA,93308,35.44735,-119.08652,KERN COUNTY,221112,,right_only
1002759,,,,,,GHGRP,,,CHALK CLIFF COGEN,34759 LENCIONI AVE,BAKERSFIELD,CA,93308,35.44735,-119.08652,KERN COUNTY,221112,,right_only
1003649,,,,,,GHGRP,,,PREPA San Juan Steam Power Plant,None,SAN JUAN,PR,936,18.4275,-66.1052,SAN JUAN,221112,,right_only
1003650,,,,,,GHGRP,,,PREPA Palo Seco Steam Power Plant,PR-165 KM 30.8,Toa Baja,PR,949,18.4551,-66.1489,TOA BAJA,221112,,right_only
1003651,,,,,,GHGRP,,,PREPA Daguao Turbine Power Block,PR-03 KM 58.3,CEIBA,PR,735,18.243581,-65.653972,CEIBA,221112,,right_only
1003664,,,,,,GHGRP,,,Hanford L.P.,10596 Idaho Ave. ,Hanford,CA,93230,36.26938,-119.64875,KINGS COUNTY,221112,,right_only
1003690,,,,,,GHGRP,,,Alon Bakersfield Refining - Area 3,3663 Gibson Street,Bakersfield,CA,93308,35.393611,-119.0525,KERN,324110,,right_only
1003730,,,,,,GHGRP,,,AIR LIQUIDE - FREEPORT HYCO PLANT,2398 VICTORIA ROAD,FREEPORT,TX,77541,28.98037,-95.38396,BRAZORIA COUNTY,325120,,right_only
1003872,,,,,,GHGRP,,,Brooksville North Cement Plant,16301 Ponce De Leon Blvd,BROOKSVILLE,FL,34614,28.643555,-82.47203,HERNANDO,327310,,right_only
1003873,,,,,,GHGRP,,,GILCREST GAS PLANT,13472 WELD COUNTY RD 40,PLATTEVILLE,CO,80651,40.27542,-104.80199,WELD COUNTY,211112,,right_only
1003922,,,,,,GHGRP,,,"Vermont Gas Systems, Inc.",85 Swift Street,South Burlington,VT,5403,44.477853,-73.174801,CHITTENDEN,221210,,right_only
1004001,,,,,,GHGRP,,,Kern River Cogeneration Facility,1546 SW China Grade Loop,BAKERSFIELD,CA,93308,35.42686,-118.99222,KERN,221112,,right_only
1004186,,,,,,GHGRP,,,Kern River,1546 China Grade Loop,Bakersfield,CA,93308,35.42686,-118.99222,KERN,211111,,right_only
1004255,,,,,,GHGRP,,,Sampson County Landfill,7434 Roseboro Highway,Roseboro,NC,28382,34.96375,-78.448,SAMPSON,562212,,right_only
1004469,,,,,,GHGRP,,,LILLY DEL CARIBE INC CAROLIN A,430 Calle Fabril (formerly KM 12.6 65TH INFANTRY RD),CAROLINA,PR,987,18.354615,-65.945253,CAROLINA,325412,,right_only
1004611,,,,,,GHGRP,,,Tanguisson Power Plant,NCS,Dededo,GU,96929,13.541741,144.807727,GUAM,221112,,right_only
1004621,,,,,,GHGRP,,,Covestro LLC,8500 West Bay RD MS#21,Baytown,TX,77523,29.7575,-94.903056,CHAMBERS COUNTY,325211,,right_only
1004727,,,,,,GHGRP,,,Toca Gas Processing Plant,2300  Bayou Road,St. Bernard,LA,70085,29.851345,-89.830508,SAINT BERNARD,211112,,right_only
1004774,,,,,,GHGRP,,,Ponce Landfill,None,PONCE,PR,731,18.100065,-66.62008,PONCE MUNICIPIO,562212,,right_only
1004899,,,,,,GHGRP,,,ST MARYS CEMENT INC-DIXON PLANT,1914 WHITE OAK LN.,DIXON,IL,61021,41.861,-89.4548,LEE,327310,,right_only
1005072,,,,,,GHGRP,,,"AMGEN MANUFACTURING, LIMITED",RD 31 KM 24.6,JUNCOS,PR,777,18.235793,-65.904429,JUNCOS,325412,,right_only
1005095,,,,,,GHGRP,,,KANEKA North America LLC,6161 UNDERWOOD RD,PASADENA,TX,77507,29.62097,-95.08714,HARRIS COUNTY,325411,,right_only
1005158,,,,,,GHGRP,,,Arecibo Landfill,"Carr. PR-682 Interior, Sector Garrochales, Bo. Factor II",Arecibo,PR,612,18.466542,-66.625644,ARECIBO,562212,,right_only
1005161,,,,,,GHGRP,,,Guaynabo Landfill,"Carr. PR-1, hacia Carr. PR-834, Sector La Muda",Guaynabo,PR,969,18.3263,-66.1034,GUAYNABO,562920,,right_only
1005166,,,,,,GHGRP,,,Toa Baja Landfill,"Carr. PR-866, Bo. Candelaria, Km. 1.5",Toa Baja,PR,961,18.421713,-66.204524,TOA BAJA MUNICIPIO,562212,,right_only
1005310,,,,,,GHGRP,,,AES - PUERTO RICO COGENERATION PLANT,"KM 142, RTE. #3 BO. JOBOS",GUAYAMA,PR,785,17.9451,-66.1503,GUAYAMA,221112,,right_only
1005368,,,,,,GHGRP,,,TEHAMA COUNTY/RED BLUFF LANDFILL,19995 PLYMIRE ROAD,RED BLUFF,CA,96080,40.19656,-122.29375,TEHAMA,562212,,right_only
1005453,,,,,,GHGRP,,,ECOELECTRICA LP,ROAD 337 KM 3.7,PENUELAS,PR,624,17.979,-66.7556,PENUELAS,221112,,right_only
1005469,,,,,,GHGRP,,,PREPA Vega Baja Turbine Power Block,Calle Betances Final 51,Vega Baja,PR,964,18.445975,-66.391282,VEGA BAJA,221112,,right_only
1005470,,,,,,GHGRP,,,PREPA Yabucoa Power Block,PR 03 KM 86.5,Humacao,PR,792,18.106453,-65.824499,HUMACAO,221112,,right_only
1005504,,,,,,GHGRP,,,PREPA AGUIRRE POWER GENERATION COMPLEX,PR-03 KM 152.7 BO. MONTESORRIA AGUIRRE,AGUIRRE,PR,704,17.9493,-66.2317,SALINAS,221112,,right_only
1005518,,,,,,GHGRP,,,BLACK OAK LANDFILL,5054 HIGHWAY HH,HARTVILLE,MO,65667,37.2413,-92.4584,WRIGHT,562212,,right_only
1005539,,,,,,GHGRP,,,PREPA Cambalache Combustion Turbine Plant,"PR-681, KM 0.5",ARECIBO,PR,612,18.4711,-66.6994,ARECIBO,221112,,right_only
1005540,,,,,,GHGRP,,,PREPA Jobos Turbine Power Block,PR-03 KM 142.2 BARRIO JOBOS,GUAYAMA,PR,784,17.96102,-66.14016,GUAYAMA,221112,,right_only
1005541,,,,,,GHGRP,,,PREPA Mayaguez Turbine Power Block,None,MAYAGUEZ,PR,680,18.2191,-67.1599,MAYAGUEZ,221112,,right_only
1005625,,,,,,GHGRP,,,North Texas,602 WEST LAKE DRIVE,WEATHERFORD,TX,76087,32.7783,-97.6956,Parker,221112,,right_only
1005635,,,,,,GHGRP,,,Aera Energy Metson,29235 Highway 33,Maricopa,CA,93252,35.09233,-119.407371,KERN,211111,,right_only
1005774,,,,,,GHGRP,,,Glenwood,SHORE ROAD,GLENWOOD LANDING,NY,11547,40.8269,-73.6479,Nassau,221112,,right_only
1006089,,,,,,GHGRP,,,TOYON CANYON PARK RECLAMATION PROJECT,5050 MOUNT HOLLYWOOD DRIVE,LOS ANGELES,CA,90027,34.144775,-118.308329,LOS ANGELES,562212,,right_only
1006133,,,,,,GHGRP,,,SHELL CHEMICAL LP - NORCO CHEMICAL PLANT WEST SITE,16122 RIVER RD.,NORCO,LA,70079,29.99904,-90.42335,SAINT CHARLES,325110,,right_only
1006139,,,,,,GHGRP,,,BEAR MOUNTAIN LIMITED,34759 LENCIONI AVE,BAKERSFIELD,CA,93308,35.44735,-119.08652,KERN COUNTY,221112,,right_only
1006148,,,,,,GHGRP,,,Onshore Treating Facility,6000 DEAKLE ROAD,THEODORE,AL,36582,30.4319,-88.1825,MOBILE,211111,,right_only
1006164,,,,,,GHGRP,,,"Argos San Juan, Corp.","Road PR-2, Km 26.7",Dorado,PR,646,18.3944,-66.2976,DORADO,212312,,right_only
1006191,,,,,,GHGRP,,,JACKSONVILLE N SANITARY LANDFILL,11405 ISLAND DRIVE,JACKSONVILLE,FL,32225,30.441998,-81.554237,DUVAL,562212,,right_only
1006228,,,,,,GHGRP,,,Salinas Landfill,"BO AGUIRRE, RD #3 HECTOMETRO 7",SALINAS,PR,751,17.957711,-66.236355,SALINAS MUNICIPIO,562212,,right_only
1006264,,,,,,GHGRP,,,INEOS POLYETHYLENE,1230 Independence Parkway S,La Porte,TX,77571,29.718368,-95.08583,HARRIS,325211,,right_only
1006451,,,,,,GHGRP,,,"Limetree Bay Terminals, LLC",1 ESTATE HOPE,CHRISTIANSTED,VI,820,17.7102,-64.7544,SAINT CROIX,324110,,right_only
1006522,,,,,,GHGRP,,,SOUTH 80 LANDFILL,1300 KASTER RD,ST HELENS,OR,97051,45.8476,-122.803,COLUMBIA,322121,,right_only
1006554,,,,,,GHGRP,,,Rockford Energy Center,136 HARRISON AVE,ROCKFORD,IL,61104,42.2403,-89.1025,Winnebago,221112,,right_only
1006604,,,,,,GHGRP,,,Black Hills Energy Arkansas LLC.,655 E. Millsap Road Suite 104,Fayetteville,AR,72703,39.722098,-105.135202,JEFFERSON,221210,,right_only
1006605,,,,,,GHGRP,,,"Black Hills Gas Distribution Nebraska LLC, dba Black Hills Energy",1600 Windhoek Drive,Lincoln,NE,68512,39.722098,-105.135202,JEFFERSON,221210,,right_only
1006832,,,,,,GHGRP,,,"ROVA Venture, LLC Roanoke Valley II",290 POWER PLACE,WELDON,NC,27890,36.4364,-77.6167,Halifax,221112,,right_only
1006887,,,,,,GHGRP,,,Atmos Energy Corporation - Tennessee,5430 LBJ Freeway,Dallas,TX,75240,32.92548,-96.81613,DALLAS,221210,,right_only
1007011,,,,,,GHGRP,,,City of Rensselaer Gas Utility,706 N. Cullen,Rensselaer,IN,47978,40.94284,-87.15426,JASPER COUNTY,221210,,right_only
1007029,,,,,,GHGRP,,,NEWLAND PARK LANDFILL,6948 BRICK KILN ROAD,SALISBURY,MD,21801,38.3889,-75.64026,WICOMICO COUNTY,562212,,right_only
1007033,,,,,,GHGRP,,,"CEMEX de Puerto Rico, Inc.","State Road 123, kilometer 8.0",Ponce,PR,733,18.02305,-66.63888,PONCE,327310,,right_only
1007083,,,,,,GHGRP,,,Cabo Rojo Landfill,"Carr. PR-313, Km 13.4, Llanos Costas, Sector Las Palmas",Cabo Rojo,PR,623,17.976252,-67.152653,CABO ROJO MUNICIPIO,562212,,right_only
1007084,,,,,,GHGRP,,,Fajardo Municipal Landfill,"Carr. PR-982, Bo. Demajagua",Fajardo,PR,740,18.291343,-65.679315,FAJARDO,562212,,right_only
1007106,,,,,,GHGRP,,,Stingray West Cameron 509,4918 Gulf Beach Hwy,Cameron,LA,70631,29.761302,-93.601405,CAMERON,486210,,right_only
1007121,,,,,,GHGRP,,,Carolina Landfill,"Carr. PR-874 Final, Km. 1.7, Bo. Hoyos Mulas",Carolina,PR,984,18.408363,-65.93762,CAROLINA MUNICIPIO,562212,,right_only
1007139,,,,,,GHGRP,,,San Juan Landfill,None,San Juan,PR,907,18.4358,-66.0816,SAN JUAN MUNICIPIO,562212,,right_only
1007194,,,,,,GHGRP,,,Toa Alta Landfill,"Carr. PR-165, Km 8.2, Bo. Contomo",Toa Alta,PR,953,18.370711,-66.26392,TOA ALTA MUNICIPIO,562212,,right_only
1007205,,,,,,GHGRP,,,Trigen Energy - Schuylkill,2600 CHRISTIAN STREET,PHILADELPHIA,PA,19146,39.9422,-75.1875,Philadelphia,221330,,right_only
1007221,,,,,,GHGRP,,,GUAM POWER AUTHORITY - CABRAS POWER PLANT,322 CABRAS HIGHWAY,PITI,GU,96915,13.3949,144.7071,GUAM,221112,,right_only
1007287,,,,,,GHGRP,,,Indiana Harbor Coke Company,3210 Watling St.,East Chicago,IN,46312,41.656321,-87.450142,LAKE COUNTY,324199,,right_only
1007353,,,,,,GHGRP,,,Robert E Ritchie,HWY 20,HELENA,AR,72342,34.4629,-90.5987,Phillips,221112,,right_only
1007376,,,,,,GHGRP,,,J K Spruce,12940 S US Hwy 181,SAN ANTONIO,TX,78223,29.3091,-98.3205,Bexar,221112,,right_only
1007382,,,,,,GHGRP,,,Cullman Environmental,2805 AL Highway 69 S,Cullman,AL,35057,34.0244,-86.8996,CULLMAN,562212,,right_only
1007452,,,,,,GHGRP,,,PR ELEC POWER AUTH SOUTH COAST STATION,PR-127 KM. 15.7,GUAYANILLA,PR,656,18.0001,-66.7536,GUAYANILLA,221112,,right_only
1007514,,,,,,GHGRP,,,ABBVIE LTD.,RD 2 KM 58.0,BARCELONETA,PR,617,18.433237,-66.570509,BARCELONETA,325411,,right_only
1007553,,,,,,GHGRP,,,"The President & Fellows of Harvard College, Cambridge/Allston Campus",46 Blackstone Street,CAMBRIDGE,MA,2138,42.36429,-71.1148,MIDDLESEX COUNTY,611310,,right_only
1007558,,,,,,GHGRP,,,NORTH MIRAMAR SANITARY LANDFILL,5180 CONVOY STREET,SAN DIEGO,CA,92111,32.83666,-117.152262,SAN DIEGO,562212,,right_only
1007578,,,,,,GHGRP,,,Mayaguez Landfill,"Road #108, KM 3.1, Bo. Sabaneta, Sector Cuba",Mayaguez,PR,680,18.17882,-67.150378,MAYAGUEZ,562212,,right_only
1007598,,,,,,GHGRP,,,Tradinghouse,1868 LAKE FELTON PKWY,WACO,TX,76705,31.5733,-96.9642,Mclennan,221112,,right_only
1007630,,,,,,GHGRP,,,El Coqui Landfill,"Road #3, Int. 923, KM 1.7, Bo. Buena Vista",Humacao,PR,791,18.13192,-65.808347,HUMACAO,562212,,right_only
1007650,,,,,,GHGRP,,,Cape Canaveral,6000 NORTH US HWY 1,COCOA,FL,32927,28.4694,-80.7642,Brevard,221112,,right_only
1007700,,,,,,GHGRP,,,Denver Regional North Landfill,1441 Weld County Rd 6,Erie,CO,80516,40.024535,-105.027726,BOULDER,562212,,right_only
1007735,,,,,,GHGRP,,,BAXTER HEALTHCARE SA / BAXTER HEALTHCARE OF PUERTO RICO,ROAD 3 KM 142.5,GUAYAMA,PR,784,17.9631,-66.1503,GUAYAMA,325412,,right_only
1007736,,,,,,GHGRP,,,Cummings Road Landfill,5775 Cummings Road,Eureka,CA,95503,40.76235,-124.08941,HUMBOLDT COUNTY,562212,,right_only
1007967,,,,,,GHGRP,,,VI WATER AND POWER AUTHORITY,KRUM BAY FACILITY,ST THOMAS,VI,804,18.33079,-64.960424,SAINT THOMAS,221112,,right_only
1008001,,,,,,GHGRP,,,"VI WATER AND POWER AUTHORITY, Richmond Plant",1 Penitentiary Lane,CHRISTIANSTED,VI,820,17.750141,-64.714793,ST. CROIX ISLAND,221112,,right_only
1008594,,,,,,GHGRP,,,"TALCO Midstream Assets, LTD. - Holly Common Point #5 Facility",12377 Merit Dr. STE 300A,Dallas,TX,75251,32.91593,-96.77249,DALLAS COUNTY,211111,,right_only
1008617,,,,,,GHGRP,,,Denbury Onshore LLC 395 Williston,5320 Legacy Drive,Plano,TX,75024,33.07567,-96.80594,COLLIN,211111,,right_only
1008807,,,,,,GHGRP,,,SandRidge 375 Sedgwick Basin,123 Robert S. Kerr Ave.,Oklahoma City,OK,73102,35.4698,-97.51477,OKLAHOMA COUNTY,211111,,right_only
1008809,,,,,,GHGRP,,,SandRidge 430 Permian Basin,123 Robert S. Kerr Ave.,Oklahoma City,OK,73102,35.4698,-97.51477,OKLAHOMA COUNTY,211111,,right_only
1008942,,,,,,GHGRP,,,Denbury Onshore LLC 210 Mid-Gulf Coast,5320 Legacy Drive,Plano,TX,75024,33.07567,-96.80594,COLLIN,211111,,right_only
1008959,,,,,,GHGRP,,,"Compass Production Partners, LP - Permian Basin #430","204 N Robinson, Suite 1300",Oklahoma City,OK,73102,35.4711808,-97.516602,None,211111,,right_only
1008974,,,,,,GHGRP,,,580 San Juan Basin DEC,333 West Sheridan Ave,Oklahoma City,OK,73102,35.4711808,-97.516602,None,211111,,right_only
1008990,,,,,,GHGRP,,,Blue Diamond Mining MINE 68,1021 Tori Drive,Hazard,KY,41701,37.274127,-83.239034,PERRY COUNTY,212112,,right_only
1009726,,,,,,GHGRP,,,ITC Midwest,27175 Energy Way,Novi,MI,48377,42.4926,-83.44298,OAKLAND COUNTY,221121,,right_only
1009746,,,,,,GHGRP,,,Revelation-Dorchester Mine #4,633 Callahan Avenue,Appalachia,VA,24216,36.970042,-82.604399,WISE COUNTY,212112,,right_only
1009748,,,,,,GHGRP,,,Revelation-Bluff Spur #1,633 Callahan Avenue,Appalachia,VA,24216,36.970042,-82.604399,WISE COUNTY,212112,,right_only
1009820,,,,,,GHGRP,,,Deep Mine 35,5703 Crutchfield Drive,Norton,VA,24273,36.970042,-82.604399,WISE COUNTY,212112,,right_only
1009821,,,,,,GHGRP,,,Deep Mine 41,5703 Crutchfield Drive,Norton,VA,24273,36.970042,-82.604399,WISE COUNTY,212112,,right_only
1009829,,,,,,GHGRP,,,"Mettiki Coal (WV), LLC",293 Table Rock Road,Oakland,MD,21550,39.26178,-79.42836,GARRETT COUNTY,212112,,right_only
1009886,,,,,,GHGRP,,,OVEC\IKEC Transmission System,3932 U.S. Route 23,Piketon,OH,45661,39.010117,-83.026022,PIKE,221121,,right_only
1009942,,,,,,GHGRP,,,"Entergy New Orleans, Inc.",1600 Perdido Street,New Orleans,LA,70112,29.95396,-90.08019,ORLEANS PARISH,221119,,right_only
1009944,,,,,,GHGRP,,,Aera Energy Wier Gore Maxwell,25401 Highway 33,Fellows,CA,93224,35.23147,-119.57948,KERN COUNTY,211111,,right_only
1010021,,,,,,GHGRP,,,"Entergy Texas, Inc.",350 Pine Street,Beaumont,TX,77701,30.08529,-94.09785,JEFFERSON COUNTY,221119,,right_only
1010143,,,,,,GHGRP,,,Biglow Switchyard,121 SW Salmon Street,Portland,OR,97204,45.51586,-122.67514,MULTNOMAH COUNTY,221122,,right_only
1010191,,,,,,GHGRP,,,PREPA Electrical Transmission and Distribution Equiment,Ponce de Leon Avenue Box 364267,San Juan,PR,936,18.466224,-66.105724,SAN JUAN MUNICIPIO,221121,,right_only
1010308,,,,,,GHGRP,,,Bandera Electric Cooperative,3172 State Hwy 16 North,Bandera,TX,78003,29.735226,-99.11077,BANDERA,221122,,right_only
1010338,,,,,,GHGRP,,,Coyote Springs Switchyard,121 SW Salmon Street,Portland,OR,97204,45.51586,-122.67514,MULTNOMAH COUNTY,221122,,right_only
1010527,,,,,,GHGRP,,,ITC Great Plains,27175 Energy Way,Novi,MI,48377,42.4926,-83.44298,OAKLAND COUNTY,221121,,right_only
1010694,,,,,,GHGRP,,,Stillhouse Mine No. 1,633 Callahan Avenue,Appalachia,VA,24216,36.919429,-82.794549,None,212112,,right_only
1010700,,,,,,GHGRP,,,Diageo USVI,#1 Estate Annaberg and Shannon Grove,Kingshill,VI,850,17.714908,-64.776133,ST. CROIX ISLAND,312140,,right_only
1011331,,,,,,GHGRP,,,Cairo Public Utility,1100 Commercial Ave,Cairo,IL,62914,37.00249,-89.16794,ALEXANDER,221210,,right_only
1011451,,,,,,GHGRP,,,Marianas Energy Company,180 Cabras Highway,Piti,GU,96915,13.463579,144.678216,GUAM,221112,,right_only
1011713,,,,,,GHGRP,,,Yauco Landfill,PR-335 int. km 3.8 Sector La Joya,Yauco,PR,698,18.0656,-66.843932,YAUCO MUNICIPIO,562212,,right_only
11778911,,,,,,NEI,,,CANDLELIGHT,Unknown,NEW MILFORD,CT,00000,41.5679,-73.4607,Litchfield,48811,,right_only
12308111,,,,,,NEI,,,BEMER,Unknown,PORTLAND,CT,00000,41.6229,-72.6006,Middlesex,48811,,right_only
12305811,,,,,,NEI,,,NORTH HAVEN,Unknown,NORTH HAVEN,CT,00000,41.3673,-72.8801,New Haven,48811,,right_only
590211,,,,,,NEI,,,DOW CHEMICAL CO,1761 RTE 12,GALES FERRY,CT,06335-1213,41.4423,-72.0817,New London,325211,,right_only
11649811,,,,,,NEI,,,ELLINGTON,Unknown,ELLINGTON,CT,00000,41.9254,-72.4572,Tolland,48811,,right_only
11982011,,,,,,NEI,,,CAPE COD,Unknown,MARSTON MILLS,MA,00000,41.6853,-70.4022,Barnstable,48811,,right_only
5176611,,,,,,NEI,,,MAXYMILLIAN TECHNOLOGIES INC,EE ST,NORTH ADAMS,MA,01247-0000,42.6684,-73.0908,Berkshire,562219,,right_only
12515911,,,,,,NEI,,,WESTPORT,Unknown,WESTPORT,MA,00000,41.6493,-71.1259,Bristol,48811,,right_only
6103611,,,,,,NEI,,,EY TECHNOLOGIES,939 CURRANT RD,FALL RIVER,MA,02720-0000,41.7411,-71.1062,Bristol,314999,,right_only
5667211,,,,,,NEI,,,HOLYOKE ANIMAL HOSPITAL,320 EASTHAMPTON RD,HOLYOKE,MA,01040-0000,42.2304,-72.6482,Hampden,541940,,right_only
5980611,,,,,,NEI,,,HOLYOKE GAS & ELECTRIC DEPARTMENT,102 CABOT ST,HOLYOKE,MA,01040-6074,42.1998,-72.6101,Hampden,221112,,right_only
14520011,,,,,,NEI,,,ARMORY ST LANDFILL - WESTERN DISPOSAL,CASS ST,SPRINGFIELD,MA,01102-0000,42.1172,-72.59059999999998,Hampden,562212,,right_only
14508811,,,,,,NEI,,,WARE COGEN LIMITED PARTNERSHIP,EAST MAIN ST,WARE,MA,01082-0000,42.2586,-72.2371,Hampshire,221330,,right_only
11700511,,,,,,NEI,,,PEPPERELL,Unknown,PEPPERELL,MA,00000,42.6962,-71.5501,Middlesex,48811,,right_only
12040211,,,,,,NEI,,,BOSTON SCIENTIFIC MARLBORO,Unknown,MARLBORO,MA,00000,42.3617,-71.5089,Middlesex,48811,,right_only
12513611,,,,,,NEI,,,COMPAQ MARLBORO,Unknown,MARLBORO,MA,00000,42.3262,-71.5762,Middlesex,48811,,right_only
14512911,,,,,,NEI,,,CHURCHILL CORP,344 FRANKLIN ST,MELROSE,MA,02176-0000,42.4517,-71.0673,Middlesex,332322,,right_only
5670511,,,,,,NEI,,,EMC CORPORATION,171 SOUTH ST,HOPKINTON,MA,None,42.1959,-71.5395,Middlesex,334412,,right_only
5904911,,,,,,NEI,,,COLEMAN MANUFACTURING,48 WATERS AVE,EVERETT,MA,02149-0000,42.4078,-71.0647,Middlesex,327992,,right_only
6568811,,,,,,NEI,,,GAS RECOVERY SYSTEMS INC - RANDOLPH,30 JOHNSON DR,RANDOLPH,MA,02368-0000,42.1793,-71.0778,Norfolk,221118,,right_only
14526611,,,,,,NEI,,,GAS RECOVERY SYSTEMS,234 THATCHER ST,EAST BRIDGEWATER,MA,02333-0000,42.0597,-70.9784,Plymouth,221118,,right_only
4992911,,,,,,NEI,,,SCITUATE HIGH SCHOOL,606 CHIEF JUSTICE CUSHING HWY,SCITUATE,MA,02066-0000,42.1973,-70.7696,Plymouth,611110,,right_only
4064811,,,,,,NEI,,,STATE STREET BANK,1 LINCOLN ST,BOSTON,MA,None,42.3537,-71.0581,Suffolk,921110,,right_only
5087011,,,,,,NEI,,,PANDOLF PERKINS COMP,194 WORCESTER RD,STERLING,MA,01564-0000,42.4258,-71.7723,Worcester,324121,,right_only
5088111,,,,,,NEI,,,RESOURCE CONTROL INC-WESTMINSTER,101 FITCHBURG RD,WESTMINSTER,MA,01473-0000,42.5335,-71.847,Worcester,562212,,right_only
5946811,,,,,,NEI,,,WORCESTER SAND & GRA,182 HOLDEN ST,SHREWSBURY,MA,01545-0000,42.3077,-71.7537,Worcester,212321,,right_only
8061611,,,,,,NEI,,,CLASSIC ENVELOPE INC,120 GILBOA ST,EAST DOUGLAS,MA,01516-0000,42.0844,-71.6985,Worcester,313310,,right_only
5096511,,,,,,NEI,,,"STRIPPING WORKSHOP, THE",100 GRAND ST,WORCESTER,MA,01610-0000,42.2477,-71.8178,Worcester,811420,,right_only
11012211,,,,,,NEI,,,BRESETT'S MOUNTAINSIDE,Unknown,VAN BUREN,ME,00000,47.2025,-67.9917,Aroostook,48811,,right_only
9604011,,,,,,NEI,,,Augusta State,Unknown,Augusta,ME,00000,44.3207,-69.7973,Kennebec,48811,,right_only
5250911,,,,,,NEI,,,LANE CONSTRUCTION CORP - HERMON (RAP),1067 ODLIN RD,BANGOR,ME,04401,44.7794,-68.8469,Penobscot,324121,,right_only
5760611,,,,,,NEI,,,LANE CONSTRUCTION CORP - HERMON (26),1067 ODLIN RD,BANGOR,ME,04401,44.7794,-68.8469,Penobscot,324121,,right_only
5760911,,,,,,NEI,,,LANE CONSTRUCTION CORP - HERMON (38),95 WARREN AVE,BANGOR,ME,None,44.7794,-68.8469,Penobscot,324121,,right_only
9576511,,,,,,NEI,,,Millinocket Muni,Unknown,Millinocket,ME,00000,45.6478,-68.6856,Penobscot,48811,,right_only
5972511,,,,,,NEI,,,COUSINEAU WOOD PRODUCTS,3 VALLEY RD,NORTH ANSON,ME,04958,44.8521,-69.9032,Somerset,321113,,right_only
12287211,,,,,,NEI,,,SOUTHERN NH MEDICAL CENTER,Unknown,NASHUA,NH,00000,42.7558,-71.462,Hillsborough,48811,,right_only
12302111,,,,,,NEI,,,DEAN KAMEN II,Unknown,BEDFORD,NH,00000,42.9223,-71.5084,Hillsborough,48811,,right_only
12301811,,,,,,NEI,,,SPEEDWAY,Unknown,LOUDON,NH,00000,43.3584,-71.4634,Merrimack,48811,,right_only
12303611,,,,,,NEI,,,NORTHWOOD,Unknown,NORTHWOOD,NH,00000,43.2076,-71.2212,Rockingham,48811,,right_only
12138611,,,,,,NEI,,,NORTHERN LIGHTS,Unknown,ALBURG,VT,00000,44.872,-73.2865,Grand Isle,48811,,right_only
15578611,,,,,,NEI,,,C.V.P.S.C. Unit #4 Ascutney,Route 131,Ascutney,VT,05030,43.3991,-72.4208,Windsor,22111,,right_only
9795811,,,,,,NEI,,,Igor I Sikorsky Memoria,1000 Great Meadow Rd,Stratford,CT,06615,41.166,-73.135,Fairfield,48811,,right_only
11517711,,,,,,NEI,,,HARTFORD HOSPITAL,Unknown,HARTFORD,CT,00000,41.7545,-72.6787,Hartford,48811,,right_only
12396711,,,,,,NEI,,,ATLANTIC CITY MEDICAL CENTER,Unknown,POMONA,NJ,00000,39.4792,-74.53969999999998,Atlantic,48811,,right_only
7525411,,,,,,NEI,,,"KMS Crossroad, Inc.",99 CONTINENTAL BLVD,MAHWAH,NJ,07495,41.1047,-74.16209999999998,Bergen,221112,,right_only
7528511,,,,,,NEI,,,Hartin Paint & Filler Corp,14th & Broad Sts.,Carlstadt,NJ,None,40.835,-74.08499999999998,Bergen,325510,,right_only
12749311,,,,,,NEI,,,"ARMOTEK INDUSTRIES, INC.",1 ROTO AVE,PALMYRA,NJ,08065,39.9963,-75.0296,Burlington,332812,,right_only
5117711,,,,,,NEI,,,Callahan Chemical Co,Broad St. & Filmore Ave.,Palmyra,NJ,8065,39.9972,-75.0322,Burlington,42469,,right_only
7479111,,,,,,NEI,,,LAFARGE NORTH AMERICA GYPSUM DIV,265 DISTRIBUTION ST,PORT NEWARK,NJ,07114,40.7019,-74.1453,Essex,327420,,right_only
14766811,,,,,,NEI,,,SHAMROCK TECHNOLOGIES INC,PACIFIC ST,NEWARK,NJ,07114,40.7181,-74.1688,Essex,325991,,right_only
12747811,,,,,,NEI,,,CUSTOM BUILDING PRODUCTS,2115 HIGH HILL RD,LOGAN TWP,NJ,08085,39.773,-75.3623,Gloucester,327390,,right_only
13639711,,,,,,NEI,,,"EAGLE POINT TERMINALS, LLC - EP TERMINAL",1000 CROWN PT RD,WESTVILLE,NJ,8083,39.8651,-75.1422,Gloucester,493190,,right_only
7592811,,,,,,NEI,,,KUEHNE CHEMICAL COMPANY INC.,86 HACKENSACK AVE,KEARNY,NJ,07032,40.7342,-74.101,Hudson,339999,,right_only
11738511,,,,,,NEI,,,FIDDLERS ELBOW COUNTRY CLUB,Unknown,SOMERVILLE,NJ,00000,40.6334,-74.7329,Hunterdon,48811,,right_only
7550111,,,,,,NEI,,,3M,500 Rte. 202 N.,Flemington,NJ,8822,40.5122,-74.8597,Hunterdon,339112,,right_only
7593511,,,,,,NEI,,,Exxon Research & Engineering Co. Clinton Site,1545 U. S. Route 22 East,Annandale,NJ,08801-3059,40.6381,-74.8657,Hunterdon,541712,,right_only
11738711,,,,,,NEI,,,TRENTON,Unknown,TRENTON,NJ,00000,40.214,-74.7677,Mercer,48811,,right_only
12396311,,,,,,NEI,,,NEW JERSEY TURNPIKE,Unknown,JAMESBURG,NJ,00000,40.3165,-74.4901,Middlesex,48811,,right_only
6722411,,,,,,NEI,,,FERRO CORPORATION--PDI,54 KELLOGG CT,Edison,NJ,08817,40.5367,-74.40139999999998,Middlesex,325510,,right_only
6723211,,,,,,NEI,,,Stavola - Rosano Asphalt,RT 547,HOWELL TWP,NJ,07719,40.2192,-74.143,Monmouth,324121,,right_only
7540711,,,,,,NEI,,,BEL RAY CO INC,1201 BOWMAN AVE,WALL,NJ,07727,40.226,-74.1387,Monmouth,324191,,right_only
12752611,,,,,,NEI,,,ZIMMER TRABECULAR METAL TECHNOLOGY INC,10 POMEROY RD,PARSIPPANY TROY-HILLS,NJ,07054,40.8517,-74.4238,Morris,339113,,right_only
11611411,,,,,,NEI,,,FORKED RIVER,Unknown,FORKED RIVER,NJ,00000,39.8398,-74.1776,Ocean,48811,,right_only
13639611,,,,,,NEI,,,MANOPCO INC,28-36 PATERSON ST,PATERSON,NJ,07501,40.9226,-74.1683,Passaic,325130,,right_only
7648911,,,,,,NEI,,,CRYSTEX COMPOSITES,125 Clifton Blvd.,Clifton,NJ,7011,40.8644,-74.1478,Passaic,327999,,right_only
7992711,,,,,,NEI,,,DUPONT PERFORMANCE POLYMERS,DUPONT PERFORMANCE POLYMERS,DEEPWATER,NJ,08023,39.6845,-75.4966,Salem,325211,,right_only
12395511,,,,,,NEI,,,THE FARM,Unknown,BEDMINSTER,NJ,00000,40.6723,-74.694,Somerset,48811,,right_only
7493611,,,,,,NEI,,,Fisher Scientific Co L L C,755 Rte. 202,Somerville,NJ,8876,40.567,-74.68569999999998,Somerset,42469,,right_only
9375411,,,,,,NEI,,,Somerset,Unknown,Somerville,NJ,00000,40.626,-74.67019999999998,Somerset,48811,,right_only
9372711,,,,,,NEI,,,Newton,Unknown,Newton,NJ,00000,41.0273,-74.7585,Sussex,48811,,right_only
14766011,,,,,,NEI,,,E I DUPONT DENEMOURS & COMPANY,1400 PARK AVE,LINDEN,NJ,07036,40.641,-74.2197,Union,325180,,right_only
7519211,,,,,,NEI,,,Trinitas Hospital Jersey Street,925 EAST JERSEY ST,ELIZABETH,NJ,07201,40.6618,-74.2043,Union,622110,,right_only
7990411,,,,,,NEI,,,Infineum USA L.P. - LBTC,INFINEUM USA LP,LINDEN,NJ,07036,40.646,-74.23229999999998,Union,325998,,right_only
12751311,,,,,,NEI,,,SUPERIOR SIGNAL CO LLC,178-182 W GREYSTONE RD,OLD BRIDGE TWP,NJ,08857,40.3848,-74.36669999999998,Middlesex,334519,,right_only
14400011,,,,,,NEI,,,NEW BRUNSWICK NICKEL & CHROMIUM,1010 JERSEY AVE,NEW BRUNSWICK,NJ,08901,40.4687,-74.4782,Middlesex,332813,,right_only
12468911,,,,,,NEI,,,HACKETTSTOWN,Unknown,HACKETTSTOWN,NJ,00000,40.8201,-74.85519999999998,Warren,48811,,right_only
12746111,,,,,,NEI,,,"CYCLE CHEM., INC.",217 S. FIRST ST.,ELIZABETH,NJ,07206,40.6442,-74.1952,Union,562211,,right_only
11942411,,,,,,NEI,,,WALTON,Unknown,WALTON,NY,00000,42.1579,-75.1479,Delaware,48811,,right_only
9339811,,,,,,NEI,,,Hamburg Inc,Unknown,Hamburg,NY,00000,42.7009,-78.9148,Erie,48811,,right_only
12744811,,,,,,NEI,,,PAMARCO GLOBAL GRAPHICS,235 E 11TH AVE,ROSELLE,NJ,07203,40.6483,-74.2566,Union,332812,,right_only
11725411,,,,,,NEI,,,NORTH SHORE UNIVERSITY HOSPITAL NR 2,Unknown,MANHASSET,NY,00000,40.7694,-73.70529999999998,Nassau,48811,,right_only
12040811,,,,,,NEI,,,FREEPORT,Unknown,FREEPORT,NY,00000,40.6506,-73.56789999999998,Nassau,48811,,right_only
7223211,,,,,,NEI,,,GLENWOOD LANDING ENERGY CENTER,SHORE RD,GLENWOOD LANDING,NY,11547,40.83,-73.64,Nassau,221112,,right_only
8309511,,,,,,NEI,,,RAVENSWOOD STEAM PLANT,7-18 37TH AVE,LONG ISLAND CITY,NY,11101,40.7602,-73.9452,Queens,22133,,right_only
12479211,,,,,,NEI,,,HAVERSTRAW,Unknown,HAVERSTRAW,NY,00000,41.2109,-73.9693,Rockland,48811,,right_only
12277311,,,,,,NEI,,,ADJUNTAS,Unknown,ADJUNTAS,PR,00000,18.1802,-66.7569,Adjuntas,48811,,right_only
15510511,,,,,,NEI,,,Betterecycling Corp. Aguada,"PR-2, Km 139.6, La Cadena Sector",Aguada,PR,00928,18.3284,-67.15,Aguada,324121,,right_only
15515711,,,,,,NEI,,,Sensormatic Electronics Corp of PR,"PR-110, Km 5.8 San Antonio Ward",Aguadilla,PR,00690,18.4941,-67.1042,Aguadilla,334290,,right_only
8969711,,,,,,NEI,,,Rafael Hernandez,Unknown,Aguadilla,PR,00000,18.4949,-67.1294,Aguadilla,48811,,right_only
8452711,,,,,,NEI,,,BROOKHAVEN LANDFILL GAS RECOVERY FACILITY,350 HORSEBLOCK RD,YAPHANK,NY,11980,40.7972,-72.9304,Suffolk,221118,,right_only
12277611,,,,,,NEI,,,BAXTER-AIBONITO,Unknown,AIBONITO,PR,00000,18.1397,-66.2663,Aibonito,48811,,right_only
6982311,,,,,,NEI,,,Edwards Lifesciences Corporation,"PR-402, Km 1.4, Industrial Park",Anasco,PR,00610,18.2836,-67.1397,Anasco,339112,,right_only
15450411,,,,,,NEI,,,Battery Recycling,"Road 2, Km 72.2, Cambalache Ward",Arecibo,PR,00613,18.4536,-66.6941,Arecibo,331410,,right_only
15510311,,,,,,NEI,,,Arecibo Landfill,"PR 682, Factor Ward, Garrochales Sector",Arecibo,PR,00613,18.4653,-66.6212,Arecibo,562212,,right_only
15510711,,,,,,NEI,,,Betteroads Asphalt Arecibo,"PR-10, Km 80.6, Hato Viejo",Arecibo,PR,00928,18.422,-66.7012,Arecibo,324121,,right_only
15512011,,,,,,NEI,,,Eaton (Cutler-Hammer Electrical Company),"Road 2, Km 67.6, Santana Industrial Park",Arecibo,PR,00613,18.4496,-66.6663,Arecibo,335311,,right_only
15512811,,,,,,NEI,,,"GE Industrial of PR, LLC Arecibo","Road 129, Km 41",Arecibo,PR,00612,18.461,-66.7414,Arecibo,334419,,right_only
15516711,,,,,,NEI,,,Merck-Sharp Dohme Arecibo,"Arecibo, PR",Arecibo,PR,00612,18.4331,-66.5896,Arecibo,325412,,right_only
15532211,,,,,,NEI,,,Safetech Corporation,"PO Box 140909 Arecibo, PR 00634/Lote 30, Santana Industrial Park, Arecibo",Arecibo,PR,00634,18.457,-66.661,Arecibo,562211,,right_only
6982711,,,,,,NEI,,,PREPA Cambalache,"Road 681, Km 0.5",Arecibo,PR,00936,18.4711,-66.6994,Arecibo,221112,,right_only
8969511,,,,,,NEI,,,Antonio/Nery/Juarbe Pol,Unknown,Arecibo,PR,00000,18.4511,-66.6756,Arecibo,48811,,right_only
4953311,,,,,,NEI,,,Merck-Sharp Dohme,ROAD 2 KM 56.7,Barceloneta,PR,00617,18.4286,-66.5477,Barceloneta,325412,,right_only
7113711,,,,,,NEI,,,Abbvie Ltd,"Road 2, Km 59, Barceloneta",Barceloneta,PR,00617,18.4332,-66.5705,Barceloneta,325412,,right_only
7113911,,,,,,NEI,,,Pfizer Pharmaceuticals LLC (Barceloneta),"Road 140, Km 64.4",Barceloneta,PR,00617,18.4353,-66.5705,Barceloneta,325412,,right_only
11421111,,,,,,NEI,,,REXACH OFFICE BUILDING,Unknown,PUERTO NUEVO,PR,00000,18.4152,-66.1268,Bayamo'n,48811,,right_only
11421711,,,,,,NEI,,,BAYAMON RGNL HOSPITAL,Unknown,BAYAMON,PR,00000,18.3674,-66.1538,Bayamo'n,48811,,right_only
12277411,,,,,,NEI,,,FORT BUCHANAN,Unknown,GUAYNABO,PR,00000,18.415,-66.1319,Bayamo'n,48811,,right_only
15516011,,,,,,NEI,,,"Tradewind Foods, INC. (Formerly Goya de Puerto Rico, Island litho I","Road 28, Luchetti Industrial Park",Bayamon,PR,00960,18.4161,-66.1455,Bayamo'n,311422,,right_only
15517311,,,,,,NEI,,,Betteroads Asphalt Plant 3,"Street Lot 39, Luchetti Industrial Park",Bayamon,PR,00928,18.4213,-66.1418,Bayamo'n,324121,,right_only
15517511,,,,,,NEI,,,Petroleum Emulsion (Formerly Petroleum Chemical),"Street C, Lot 36, Luchetti Industrial Park",Bayamon,PR,00936,18.4199,-66.1386,Bayamo'n,324122,,right_only
7114211,,,,,,NEI,,,Harris Paints,25 C St. Minillas Indl. Park,Bayamon,PR,959,18.3918,-66.1637,Bayamo'n,325510,,right_only
12276811,,,,,,NEI,,,BOQUERON,Unknown,CABO ROJO,PR,00000,18.013,-67.1455,Cabo Rojo,48811,,right_only
15512711,,,,,,NEI,,,"Garrido Compania, INC",Betances Street 105,Caguas,PR,00936,18.2362,-66.0388,Caguas,311920,,right_only
15514511,,,,,,NEI,,,"Neolpharma, Inc.","PR-189, Jardines, Street 99",Caguas,PR,00936,18.2421,-66.0187,Caguas,325412,,right_only
15516611,,,,,,NEI,,,Master Aggregates Plant 5,"PR-156, Km 55.5, Canaboncito Ward",Caguas,PR,00951,18.2242,-66.07,Caguas,327999,,right_only
15517111,,,,,,NEI,,,Betteroads Asphalt Corp. Caguas,"PR-156, Km 56.9, Las Carolinas Ward",Caguas,PR,00928,18.2446,-66.065,Caguas,324121,,right_only
7114611,,,,,,NEI,,,Quality Electroplating Corp.,"PR-1, Km 34.2, Villa Blanca Idustrial Park",Caguas,PR,00726,18.2577,-66.0416,Caguas,332813,,right_only
8960411,,,,,,NEI,,,Patheon Pharmaceutical,"PR-1, Km 34.3, Villa Blanca Industrial Park",Caguas,PR,00726,18.2072,-66.0519,Caguas,325412,,right_only
15510111,,,,,,NEI,,,Alco Corporation,"PR-185, Km 4.2, Campo Rico",Canovanas,PR,00729,18.3463,-65.39,Canovanas,324121,,right_only
15513611,,,,,,NEI,,,"IPR Pharmaceuticals, INC","PR-188, San Isidro Industrial Park",Canovanas,PR,00729,18.3867,-65.8841,Canovanas,325412,,right_only
15515911,,,,,,NEI,,,"Super Asphalt Pavement, Plant 2","Int PR-188 with PR-3, San Isidro Industrial Park",Canovanas,PR,00926,18.39,-65.8767,Canovanas,324121,,right_only
15510611,,,,,,NEI,,,Betterecycling Corp. Carolina,"PR-887, Km 0.4, Martin Gonzalez Ward",Carolina,PR,00928,18.38,-65.9675,Carolina,324121,,right_only
15511411,,,,,,NEI,,,Carolina Landfill,"PR 874 North End, Hoyo Mulas Ward",Carolina,PR,00630,18.3791,-65.9416,Carolina,562212,,right_only
15511811,,,,,,NEI,,,Commercial Incineration,"PR-3, Km 13.5, Canovanillas Industrial Park",Carolina,PR,00986,18.3816,-65.9241,Carolina,562213,,right_only
15513411,,,,,,NEI,,,"ICB Manufacturing CO, INC.","Street A, Lot 3, Carolina Industrial Park",Carolina,PR,00984,18.38,-65.9725,Carolina,325413,,right_only
15514011,,,,,,NEI,,,Master Aggregates Carolina,"PR-874, Km 0.4, Hoyo Mulas Ward",Carolina,PR,00951,18.4088,-65.9431,Carolina,327999,,right_only
15514711,,,,,,NEI,,,PR Aggregates,"PR-853, Km 2.3 Barrazas Ward",Carolina,PR,00771,18.3604,-65.9517,Carolina,327999,,right_only
15516411,,,,,,NEI,,,Heavens Gate at Celestium,"PR-3, Canovanillas Industrial Park",Carolina,PR,00924,18.3816,-65.9263,Carolina,562213,,right_only
6959011,,,,,,NEI,,,Wyeth-Ayerst Lederle,"65th Infantery Ave., Km 9.7",Carolina,PR,00986,18.3817,-65.966,Carolina,325412,,right_only
7114811,,,,,,NEI,,,"Lilly del Caribe, INC. Carolina","PR-3, Km 12.6",Carolina,PR,00986,18.3795,-65.9422,Carolina,325412,,right_only
7114911,,,,,,NEI,,,Crown Cork de PR,"PR-3, Km 12.6",Carolina,PR,00630,18.37,-65.9499,Carolina,332431,,right_only
7115111,,,,,,NEI,,,Esso Lmm Airport Plant,Luis Mu-Oz Marin Int. Airport Muniz Air Base Area,Carolina,PR,979,18.4394,-66.0058,Carolina,45431,,right_only
8960211,,,,,,NEI,,,Luis Munoz Marin Intl,Unknown,San Juan,PR,00000,18.439,-66.015,Carolina,48811,,right_only
15510411,,,,,,NEI,,,Bacardi,"Road 165, Km 2.6, Intersection 88",Catano,PR,00936,18.4565,-66.1398,Catano,312140,,right_only
15516811,,,,,,NEI,,,Molinos de Puerto Rico,"Catano Port Area, Embarcadero Final",Catano,PR,00936,18.4353,-66.111,Catano,311211,,right_only
15514211,,,,,,NEI,,,PROCTER AND GAMBLE,"PR 735 Km. 2.3, Rio Llano Ward",Cayey,PR,00737,18.1143,-66.165,Cayey,325412,,right_only
11424611,,,,,,NEI,,,JOSE APONTE DE LA TORRE,Unknown,CEIBA,PR,00000,18.2453,-65.6434,Ceiba,48811,,right_only
8960111,,,,,,NEI,,,PREPA Daguao,"PR-3, Km 58.3",Ceiba,PR,00936,18.241,-65.6591,Ceiba,221122,,right_only
15513711,,,,,,NEI,,,IVAX,"PR-171, Cidra Industrial Park",Cidra,PR,00739,18.308,-66.273,Cidra,325412,,right_only
15517611,,,,,,NEI,,,SB Pharmaco Puerto Rico,"PR-172, Km 9.1, Cidra,PO Box 11975 Cidra, PR 00739-1975",Cidra,PR,00698,18.1949,-66.1258,Cidra,325412,,right_only
12276711,,,,,,NEI,,,HILL,Unknown,CULEBRA,PR,00000,18.31,-65.29,Culebra,48811,,right_only
8959911,,,,,,NEI,,,Benjamin Rivera Noriega,Unknown,Isla De Culebra,PR,00000,18.3133,-65.3043,Culebra,48811,,right_only
15512311,,,,,,NEI,,,Essroc San Juan Inc.,"PR 2, KM 26.7",Dorado,PR,00936,18.3944,-66.2976,Dorado,327310,,right_only
11421511,,,,,,NEI,,,VILLA MARINA,Unknown,FAJARDO,PR,00000,18.3313,-65.6329,Fajardo,48811,,right_only
8959711,,,,,,NEI,,,Diego Jimenez Torres,Unknown,Fajardo,PR,00000,18.308,-65.6618,Fajardo,48811,,right_only
8959811,,,,,,NEI,,,Fajardo Harbor,Unknown,Fajardo,PR,00000,18.3397,-65.6246,Fajardo,48811,,right_only
15510211,,,,,,NEI,,,Alco Corporation,"PR-3, Km 143, Pozo Hondo Ward",Guayama,PR,00902,17.9833,-66.1572,Guayama,324121,,right_only
15513311,,,,,,NEI,,,Hospital Santa Rosa,"Los Veteranos Ave., Road 3",Guayama,PR,00785,17.9843,-66.1198,Guayama,622110,,right_only
15514911,,,,,,NEI,,,PREPA Jobos,"Road 3, Km 142.2 Jobos Ward",Guayama,PR,00936,17.961,-66.1402,Guayama,221112,,right_only
7128511,,,,,,NEI,,,AES Puerto Rico Cogeneration Plant,"PR 3, Km 142, Jobos Ward",Guayama,PR,00785,17.9451,-66.1503,Guayama,221112,,right_only
7128611,,,,,,NEI,,,"Baxter Health Care of Puerto Rico , Guayama","Road 3, Km 142.5",Guayama,PR,00758,17.9631,-66.1503,Guayama,325412,,right_only
7128811,,,,,,NEI,,,Latas de Aluminio Ball INC.,"Carretera 3, Km. 140.8",Guayama,PR,00785,17.9616,-66.1336,Guayama,332431,,right_only
7128911,,,,,,NEI,,,"Lilly del Caribe (Formerly, IPR)","Road PR-53, Km 84, Jobos Ward",Guayama,PR,00785,17.9802,-66.1511,Guayama,325412,,right_only
7129011,,,,,,NEI,,,"TAPI Industries, Inc. (Formerly, Chemsource)","Road 3, Km 143, Puente Jobos Ward",Guayama,PR,00785,17.9491,-66.1529,Guayama,325412,,right_only
8959611,,,,,,NEI,,,"Wyeth Pharmaceuticals Company, Inc. Guayama","PR-3, Km 142.1, Jobos",Guayama,PR,00785,17.9624,-66.1465,Guayama,325412,,right_only
7129111,,,,,,NEI,,,South Coast Steam Power Plant,Road 127,Guayanilla,PR,00656,18.0001,-66.7536,Guayanilla,221112,,right_only
11051411,,,,,,NEI,,,SAN PATRICIO,Unknown,GUAYNABO,PR,00000,18.4061,-66.106,Guaynabo,48811,,right_only
11986511,,,,,,NEI,,,CARIBBEAN CONSTR MAIN OFFICE,Unknown,GUAYNABO,PR,00000,18.3148,-66.0935,Guaynabo,48811,,right_only
12278111,,,,,,NEI,,,PRTC OFFICE BUILDING,Unknown,SAN JUAN,PR,00000,18.4111,-66.1016,Guaynabo,48811,,right_only
15511111,,,,,,NEI,,,Cantera San Antonio,"Road 833, Km 5.1, Guaraguao",Guaynabo,PR,00970,18.3327,-66.1337,Guaynabo,327999,,right_only
15511211,,,,,,NEI,,,Canteras de Puerto Rico,"Road PR 1, KM 23.6, Rio Guaynabo",Guaynabo,PR,00922,18.3177,-66.0883,Guaynabo,327999,,right_only
15511511,,,,,,NEI,,,"CEMEX Concretos, INC. (Formerly, Ready Mix, Plant 20)","Road 28, Pueblo Viejo Guaynabo",Guaynabo,PR,00733,18.4275,-66.11,Guaynabo,327320,,right_only
15512111,,,,,,NEI,,,Edelcar Inc.,"Central Ave San Pablo, Industrial Water Front, Amelia Ward",Guaynabo,PR,00936,18.4366,-66.1105,Guaynabo,311224,,right_only
15513011,,,,,,NEI,,,Guaynabo Landfill,"PR-1, La Muda Area",Guaynabo,PR,00908,18.3263,-66.1034,Guaynabo,562212,,right_only
15514411,,,,,,NEI,,,Pan American Grain,"Central Street, Vietnam Sector, Amelia",Guaynabo,PR,00968,18.4212,-66.1143,Guaynabo,311212,,right_only
15516911,,,,,,NEI,,,Nutrimix Feed (Formerly Agro Ochoa),"Road A, Sabana Industrial",Guaynabo,PR,00922,18.4358,-66.11,Guaynabo,311211,,right_only
7129211,,,,,,NEI,,,Texaco Puerto Rico Inc,Rd. 28 Pueblo Viejo Ward,Guaynabo,PR,966,18.4261,-66.1072,Guaynabo,45431,,right_only
7129411,,,,,,NEI,,,Esso Catano Bulk Terminal,State Rd. No. 28 Km. 0.8,Guaynabo,PR,965,18.4222,-66.1055,Guaynabo,45431,,right_only
8959311,,,,,,NEI,,,"RockTenn-Puerto Rico, Inc.","Road 165, KM 2.6, Amelia",Guaynabo,PR,00906,18.4226,-66.111,Guaynabo,322211,,right_only
15513911,,,,,,NEI,,,Janssen Ortho LLC,"PR-933, Km 0.1,Mamey Ward",Gurabo,PR,00778,18.2477,-65.9492,Gurabo,325412,,right_only
11420811,,,,,,NEI,,,SQUIBB,Unknown,HUMACAO,PR,00000,18.1488,-65.7938,Humacao,48811,,right_only
15511011,,,,,,NEI,,,Cantera Perez,"Pr-198, Km 26.4, Cotto Mabu Ward",Humacao,PR,00767,18.1632,-65.8454,Humacao,327999,,right_only
15511311,,,,,,NEI,,,Cardinal Health,"PR-925, Km 6.1, Junquito Ward",Humacao,PR,00792,18.1547,-65.797,Humacao,334510,,right_only
15512211,,,,,,NEI,,,El Coqui Landfill,"PR 923, Km 1.7, Buena Vista Ward",Humacao,PR,00726,18.13,-65.809,Humacao,562212,,right_only
15517211,,,,,,NEI,,,Betteroads Asphalt Corp. Humacao Plant,"PR-198, Km 26.6 Cotto Mabu Ward",Humacao,PR,00928,18.161,-65.8434,Humacao,324121,,right_only
15517711,,,,,,NEI,,,Caribe GE Distribution Component Inc.,"PR-3, Km 82",Humacao,PR,00792,18.1468,-65.8,Humacao,335931,,right_only
8041311,,,,,,NEI,,,Bristol-Myers Squibb Manufacturing Company Humacao,"PR-3, Km 77.5",Humacao,PR,00792,18.1489,-65.7948,Humacao,325412,,right_only
8951611,,,,,,NEI,,,Humacao,Unknown,Humacao,PR,00000,18.138,-65.8007,Humacao,48811,,right_only
8951711,,,,,,NEI,,,"Seamless Puerto Rico, Inc.","PR-3, Km 83.6",Humacao,PR,00791,18.1385,-65.8272,Humacao,315240,,right_only
12277911,,,,,,NEI,,,R.H.,Unknown,ISABELA,PR,00000,18.4942,-67.0242,Isabela,48811,,right_only
16142411,,,,,,NEI,,,ADVANCED PUBLIC HEALTH OF ISABELA,UNKNOWN,ISABELA,PR,00000,18.4872,-67.0278,Isabela,48811,,right_only
11421211,,,,,,NEI,,,ORAMA-IAYUYA,Unknown,JAYUYA,PR,00000,18.2111,-66.6293,Jayuya,48811,,right_only
15513811,,,,,,NEI,,,"J. F. Asociados, INC.","PR-928, Km 2.2, Lirios Ward",Juncos,PR,00777,18.2129,-65.9357,Juncos,327999,,right_only
8951511,,,,,,NEI,,,Amgen Manufacturing Limited,"PR-31, Km 24.6",Juncos,PR,00777,18.2375,-65.907,Juncos,325412,,right_only
11421311,,,,,,NEI,,,PARGUERA,Unknown,LAJAS,PR,00000,17.975,-67.0444,Lajas,48811,,right_only
12277811,,,,,,NEI,,,LAJAS AIRPARK,Unknown,LAJAS,PR,00000,18.0125,-67.075,Lajas,48811,,right_only
15512611,,,,,,NEI,,,Flexible Packaging Co. Inc.,"PR-183, Km 18.9",Las Piedras,PR,00958,18.1767,-65.8837,Las Piedras,32611,,right_only
7130111,,,,,,NEI,,,"Schering Plough Products, LLC Las Piedras","PR-183, PRIDCO Industrial Park",Las Piedras,PR,00771,18.1855,-65.8789,Las Piedras,325412,,right_only
8951211,,,,,,NEI,,,Eaton Electrical,50 Jesus T Pinero Ave,Las Piedras,PR,771,18.1764,-65.8739,Las Piedras,335999,,right_only
8951311,,,,,,NEI,,,Bd Caribe Ltd Las Piedras,Rd 183 Km 20.3,Las Piedras,PR,00771,18.1781,-65.8736,Las Piedras,339112,,right_only
8951411,,,,,,NEI,,,McNeil Consumer Products,"PR-183, Km 19.8, Montones Ward",Las Piedras,PR,00771,18.1745,-65.8863,Las Piedras,325412,,right_only
15510811,,,,,,NEI,,,Betteroads Asphalt Manati,"PR 6686, Km 6, Manati",Manati,PR,00674,18.4514,-66.4743,Manati,324121,,right_only
15516211,,,,,,NEI,,,BASF Agricultural Products of PR,"PR-2, KM 47.3",Manati,PR,00674,18.44,-66.4757,Manati,325320,,right_only
15516511,,,,,,NEI,,,INYX USA LTD,Road 604 San Jose Industrial Park,Manati,PR,00674,18.4357,-66.4885,Manati,325412,,right_only
15532111,,,,,,NEI,,,"Safety Kleen Envirosystems Co. of PR, INC.","Road 2, Manati, PR 00675",Manati,PR,00674,18.432,-66.506,Manati,562211,,right_only
7013011,,,,,,NEI,,,Du Pont Electronics Microcircuits Inds Ltd,Hwy. 686 Km 2.3,Manati,PR,None,18.4555,-66.4698,Manati,332813,,right_only
7013111,,,,,,NEI,,,Ortho Pharmaceutical,"Road 2, Km 45.6, Campo Alegre",Manati,PR,00674,18.4362,-66.4531,Manati,325412,,right_only
7013311,,,,,,NEI,,,"Warner Chilcott PR, LLC","Road 2, Km 45.7",Manati,PR,00674,18.4412,-66.456,Manati,325412,,right_only
7130211,,,,,,NEI,,,"Bristol-Myers Squibb Holdings Pharma, Ltd.","Road 686, Km 2.3",Manati,PR,00674,18.4572,-66.47,Manati,325412,,right_only
7130511,,,,,,NEI,,,"Dupont Agricultural Caribe Industries, LTD","Road 686, Km 2.3",Manati,PR,00674,18.4501,-66.4739,Manati,325320,,right_only
8951111,,,,,,NEI,,,"Patheon Puerto Rico, Inc.","Road 670, Km 2.7",Manati,PR,00674,18.427,-66.4654,Manati,325412,,right_only
15512411,,,,,,NEI,,,Fenwal International Inc. Maricao,"PR-357, Km 0.8, Maricao",Maricao,PR,00606,18.1916,-66.9916,Maricao,339112,,right_only
11421011,,,,,,NEI,,,SABALOS WARD,Unknown,MAYAGUEZ,PR,00000,18.1761,-67.1467,Mayaguez,48811,,right_only
12278011,,,,,,NEI,,,VILLAMIL-MAYAGUEZ MALL,Unknown,MAYAGUEZ,PR,00000,18.1589,-67.1464,Mayaguez,48811,,right_only
15510911,,,,,,NEI,,,"Bumble Bee International, INC.","PR-341, Km 4.5, Gonzalez Clemente Ave.",Mayaguez,PR,00681,18.2231,-67.1669,Mayaguez,311710,,right_only
15511611,,,,,,NEI,,,Cerveceria India,"Post Street, North",Mayaguez,PR,00681,18.2081,-67.1531,Mayaguez,312120,,right_only
15515011,,,,,,NEI,,,PREPA Mayaguez,"PR-3341, Jose Gonzalez Clemente Ave",Mayaguez,PR,00680,18.2195,-67.1606,Mayaguez,221112,,right_only
15515411,,,,,,NEI,,,SA Properties,"Street B, Zona Libre No. 7, Guanajibo Ward",Mayaguez,PR,00681,18.1611,-67.1561,Mayaguez,53131,,right_only
4067011,,,,,,NEI,,,"Lilly del Caribe INC, Mayaguez","Road 2, Km146.7",Mayaguez,PR,00681,18.2688,-67.1583,Mayaguez,325411,,right_only
7013511,,,,,,NEI,,,"Impress Puerto Rico, Inc.","PR-64, 3051",Mayaguez,PR,00681,18.2476,-67.1677,Mayaguez,332431,,right_only
8951011,,,,,,NEI,,,Eugenio Maria De Hostos,Unknown,Mayaguez,PR,00000,18.2542,-67.1554,Mayaguez,48811,,right_only
11421411,,,,,,NEI,,,OROCOVIS HEALTH CENTER,Unknown,OROCOVIS,PR,00000,18.2266,-66.3943,Orocovis,48811,,right_only
12067311,,,,,,NEI,,,PATILLAS,Unknown,PATILLAS,PR,00000,17.9822,-66.0193,Patillas,48811,,right_only
15513511,,,,,,NEI,,,Industrial Chemical,"Road 127, Km 19.1, Tallaboa Poniente",Penuelas,PR,00624,17.9933,-66.7286,Penuelas,325998,,right_only
7013911,,,,,,NEI,,,"Eco Electrica, L.P.","Road 337, Km 3.7",Penuelas,PR,00624,17.979,-66.7556,Penuelas,221112,,right_only
7014011,,,,,,NEI,,,Peerless Oil Chemical,Road 337,Penuelas,PR,624,17.9908,-66.7349,Penuelas,324110,,right_only
15511911,,,,,,NEI,,,Destileria Serralles,Ahonoray Street 331,Ponce,PR,00715,18.0208,-66.5625,Ponce,312140,,right_only
15517411,,,,,,NEI,,,"Betteroads Asphalt, Ponce",Ponce,Ponce,PR,00928,18.0049,-66.5883,Ponce,324121,,right_only
16142711,,,,,,NEI,,,PR POLICE-PONCE AREA,UNKNOWN,PONCE,PR,00000,18.0048,-66.5833,Ponce,48811,,right_only
7014111,,,,,,NEI,,,CEMEX,"PR-123, Km 8",Ponce,PR,00733,18.0231,-66.6389,Ponce,327310,,right_only
8950711,,,,,,NEI,,,Mercedita,Unknown,Ponce,PR,00000,18.0083,-66.563,Ponce,48811,,right_only
16142611,,,,,,NEI,,,EMPRESAS DIAZ-COCO BEACH,UNKNOWN,RIO GRANDE,PR,00000,18.409,-65.7992,Rio Grande,48811,,right_only
15515811,,,,,,NEI,,,"Steri-Tech, Inc.","Road 701, Km 7, Salinas Industrial Park",Salinas,PR,00751,17.9742,-66.3003,Salinas,325998,,right_only
15516311,,,,,,NEI,,,"Betterecycling Corp. Salinas (Formerly, Betteroads Asphalt)","PR-1, Km 83.4, Quebrada Yegua Ward",Salinas,PR,00928,18.0238,-66.2548,Salinas,324121,,right_only
6958711,,,,,,NEI,,,PREPA Aguirre,"Road PR-3, Km 152.3",Salinas,PR,00936,17.9493,-66.2317,Salinas,221112,,right_only
7014611,,,,,,NEI,,,IDI Caribe Inc,Rd. #3 Km 151.8,Aguirre,PR,704,18.01,-66.25,Salinas,325991,,right_only
11076711,,,,,,NEI,,,LA CONCEPCION HOSPITAL,Unknown,SAN GERMAN,PR,00000,18.1087,-67.0394,San German,48811,,right_only
15512511,,,,,,NEI,,,Fenwal International Inc. San German,"PR-122, Km 0.5",San German,PR,00683,18.0864,-67.0267,San German,339112,,right_only
8943011,,,,,,NEI,,,Cordis LLC,"PR-362, Km 0.5, El Guama Industrial Park",San German,PR,00683,18.09,-67.038,San German,339112,,right_only
10999211,,,,,,NEI,,,VILLAMIL-304 PONCE DE LEON,Unknown,SAN JUAN,PR,00000,18.4226,-66.057,San Juan,48811,,right_only
11421811,,,,,,NEI,,,EMPRESAS DIAZ - RIO PEDRAS,Unknown,SAN JUAN,PR,00000,18.3953,-66.0514,San Juan,48811,,right_only
12276611,,,,,,NEI,,,HATO REY,Unknown,SAN JUAN,PR,00000,18.4192,-66.0567,San Juan,48811,,right_only
12276911,,,,,,NEI,,,STATE GOVERNMENT NUMBER ONE,Unknown,SAN JUAN,PR,00000,18.4494,-66.0666,San Juan,48811,,right_only
12277011,,,,,,NEI,,,INSULAR GOVERNMENT NUMBER TWO,Unknown,SAN JUAN,PR,00000,18.4174,-66.0777,San Juan,48811,,right_only
12277111,,,,,,NEI,,,BANCO POPULAR CENTER,Unknown,SAN JUAN,PR,00000,18.4274,-66.0588,San Juan,48811,,right_only
12277211,,,,,,NEI,,,PRASA-BARBOSA,Unknown,SAN JUAN,PR,00000,18.4141,-66.0438,San Juan,48811,,right_only
12277511,,,,,,NEI,,,PUBLIC BUILDINGS AUTHORITY,Unknown,SAN JUAN,PR,00000,18.4492,-66.0664,San Juan,48811,,right_only
12278211,,,,,,NEI,,,SAN JUAN STEAM PLANT,Unknown,SAN JUAN,PR,00000,18.428,-66.1054,San Juan,48811,,right_only
12278311,,,,,,NEI,,,SAN JUAN,Unknown,SAN JUAN,PR,00000,18.3865,-66.0607,San Juan,48811,,right_only
12278411,,,,,,NEI,,,MORA DEVELOPMENT CORP,Unknown,HATO REY,PR,00000,18.4153,-66.0758,San Juan,48811,,right_only
15514111,,,,,,NEI,,,"Master Concrete (Formerly, Concreto Mixto)","Road 2, San Miguel Industrial Park",San Juan,PR,00951,18.4342,-66.0856,San Juan,327320,,right_only
15514811,,,,,,NEI,,,PRASA Puerto Nuevo,"J. F. Kennedy Ave, Road 2, Km 2",San Juan,PR,00930,18.429,-66.087,San Juan,221320,,right_only
15515511,,,,,,NEI,,,San Juan Landfill,Kennedy Ave. Km 2.1 int,San Juan,PR,00908,18.4302,-66.0801,San Juan,562212,,right_only
16142511,,,,,,NEI,,,CENTRO MEDICO FIELD,UNKNOWN,SAN JUAN,PR,00000,18.3936,-66.0734,San Juan,48811,,right_only
16142811,,,,,,NEI,,,PUERTO,UNKNOWN,SAN JUAN,PR,00000,18.3956,-66.0736,San Juan,48811,,right_only
6878311,,,,,,NEI,,,"Puerto Rico Electric Power Authority, San Juan","Mercado Central Ave, Zona Central Ave, PR-28",San Juan,PR,00936,18.4272,-66.1047,San Juan,221112,,right_only
7438311,,,,,,NEI,,,Ici Paints Puerto Rico Inc,65 Infantry Ave. Km. 13.4,Carolina,PR,985,18.3789,-65.9375,San Juan,325510,,right_only
8942911,,,,,,NEI,,,Fernando Luis Ribas Dom,Unknown,San Juan,PR,00000,18.4568,-66.0981,San Juan,48811,,right_only
7438411,,,,,,NEI,,,Lanco Mfg Corp,Urb. Aponte No. 5,San Lorenzo,PR,None,18.1511,-65.9636,San Lorenzo,325510,,right_only
11420711,,,,,,NEI,,,PRASA - LA PLATA,Unknown,TOA ALTA,PR,00000,18.3525,-66.2364,Toa Alta,48811,,right_only
7438511,,,,,,NEI,,,"Puerto Rico Electric Power Authority, Palo Seco","Road 165, Km 3.8, Toa Baja",Toa Baja,PR,00936,18.4551,-66.1489,Toa Baja,221112,,right_only
11552911,,,,,,NEI,,,CUYLERS,Unknown,VEGA BAJA,PR,00000,18.4533,-66.3669,Vega Baja,48811,,right_only
15512911,,,,,,NEI,,,"GE Industrial of PR, LLC Vega Baja","Road 686, Km 17.4, Parque Industrial Cabo Caribe",Vega Baja,PR,00694,18.4555,-66.388,Vega Baja,334419,,right_only
15515111,,,,,,NEI,,,PREPA Vega Baja,Road 2,Vega Baja,PR,00936,18.4483,-66.395,Vega Baja,221112,,right_only
15516111,,,,,,NEI,,,VSOSKE INC.,"PR-155, PR-670 Intersection",Vega Baja,PR,00693,18.4381,-66.4077,Vega Baja,324121,,right_only
8960011,,,,,,NEI,,,Antonio Rivera Rodrigue,Unknown,Isla De Vieques,PR,00000,18.1355,-65.4918,Vieques,48811,,right_only
15514311,,,,,,NEI,,,Oriental Sand Gravel,"PR-908, Km 12.7, Aguacate Ward",Yabucoa,PR,00908,18.093,-65.8512,Yabucoa,327999,,right_only
15515211,,,,,,NEI,,,PREPA Yabucoa,"PR-3, Km 86.5, Candelario Abajo Ward",Yabucoa,PR,00936,18.1076,-65.8238,Yabucoa,221122,,right_only
15515311,,,,,,NEI,,,RJ Reynolds Tobacco Co.,"PR-3, Km 90.4, Aguacate Ward",Yabucoa,PR,00792,18.1511,-65.8166,Yabucoa,312230,,right_only
15517011,,,,,,NEI,,,Olein Recovery Corp.,"PR-901, Km-2.7 Camino Nuevo Ward",Yabucoa,PR,00767,18.0498,-65.85,Yabucoa,324191,,right_only
7439011,,,,,,NEI,,,Downstream Chemicals,"PR 901, KM 2.6, Camino Nuevo Ward",Yabucoa,PR,00767,18.049,-65.848,Yabucoa,324110,,right_only
15515611,,,,,,NEI,,,"Sartorius, Inc.",PR-128 Intersection with PR-376,Yauco,PR,00698,18.0398,-66.859,Yauco,314999,,right_only
11451011,,,,,,NEI,,,DPS,Unknown,FREDERIKSTED ST CROIX,VI,00000,17.7964,-64.6315,St. Croix,48811,,right_only
12123911,,,,,,NEI,,,CHRISTIANSTED HARBOR-SSB,Unknown,CHRISTIANSTED ST CROIX,VI,00000,17.7964,-64.6315,St. Croix,48811,,right_only
7439311,,,,,,NEI,,,Virgin Islands Water & Power Authority,Estate Richmond,Christiansted,VI,821,17.7528,-64.7139,St. Croix,221112,,right_only
7439411,,,,,,NEI,,,Hovensa L L C,1 Estate Hope,Christiansted,VI,None,17.7102,-64.7544,St. Croix,324110,,right_only
8942611,,,,,,NEI,,,Henry E Rohlsen,Unknown,Christiansted,VI,00000,17.7003,-64.8165,St. Croix,48811,,right_only
11451111,,,,,,NEI,,,ST THOMAS WATERFRONT,Unknown,CHARLOTTE AMALIE,VI,00000,18.3443,-64.9297,St. Thomas,48811,,right_only
12123711,,,,,,NEI,,,FRENCHMAN'S REEF,Unknown,ST THOMAS,VI,00000,18.3443,-64.9297,St. Thomas,48811,,right_only
12123811,,,,,,NEI,,,STOUFFER GRAND BEACH RESORT,Unknown,CHARLOTTE AMALIE,VI,00000,18.3443,-64.9297,St. Thomas,48811,,right_only
7439811,,,,,,NEI,,,St Thomas Bulk Terminal,Cyrilking Airport Cargo Area,Charlotte Amalie,VI,802,18.3333,-64.9731,St. Thomas,424710,,right_only
7439911,,,,,,NEI,,,Virgin Islands Water & Power Authority,Krum Bay Facility,Saint Thomas,VI,804,18.3331,-64.9642,St. Thomas,221112,,right_only
8942411,,,,,,NEI,,,Charlotte Amalie Harbor,Unknown,Charlotte Amalie St Th,VI,00000,18.3386,-64.9407,St. Thomas,48811,,right_only
8942511,,,,,,NEI,,,Cyril E King,Unknown,Charlotte Amalie,VI,00000,18.3371,-64.9835,St. Thomas,48811,,right_only
7114411,,,,,,NEI,,,Island Litho Corp,PR-28 CORNER PR-05 LUCHETTI,Bayamon,PR,None,18.4175,-66.1442,Bayamo'n,332812,,right_only
7114511,,,,,,NEI,,,Island Can Caribbean Inc,Pr-28 Corner Pr-5 Industrial Luchetti Park,Bayamon,PR,None,18.4161,-66.1444,Bayamo'n,332431,,right_only
7114711,,,,,,NEI,,,Clorox Co Of Puerto Rico,Rd. 1 Km 27.1 Ramal 798 Bo. Rio Canas,Caguas,PR,None,18.2994,-66.0608,Caguas,325612,,right_only
7115211,,,,,,NEI,,,Allied Aviation Services Co Of Puerto Rico Inc,Luiz Munoz Marin Airport,San Juan,PR,None,18.4458,-66.0125,Carolina,45431,,right_only
8960311,,,,,,NEI,,,Curtis Instruments Pr Inc,Puerto Rico Industrial Park Km 12.6 65th Infantry,Carolina,PR,985,18.3769,-65.94,Carolina,335999,,right_only
7115311,,,,,,NEI,,,Water Treatment Specialist Inc,P.R. Rd. 896 Km 2.0 Bo. Plamas Industrial Park,Catano,PR,00962,18.4339,-66.1497,Catano,325998,,right_only
12341211,,,,,,NEI,,,TOWNSEND A,Unknown,TOWNSEND,DE,00000,39.4143,-75.66299999999998,New Castle,48811,,right_only
7013411,,,,,,NEI,,,Baxter Healthcare Fenwal Div,Rd. 357 Km. 0.8,Maricao,PR,606,18.1917,-66.9917,Maricao,325412,,right_only
7014211,,,,,,NEI,,,Essilor Inds,Sabanetas Industrial Park #242,Ponce,PR,715,18.0095,-66.5392,Ponce,339115,,right_only
6958811,,,,,,NEI,,,Caribe GE Intl Electric Meters Corp,Industrial Park El Retiro,San German,PR,683,18.075,-67.0417,San German,335313,,right_only
7438211,,,,,,NEI,,,Max Chemical Inc,La Brisas St. No. 5,Rio Piedras,PR,924,18.3964,-66.0228,San Juan,325612,,right_only
5989111,,,,,,NEI,,,Westernport WWTP,528 Maryland Ave,Westernport,MD,21562,39.4795,-79.0413,Allegany,221320,,right_only
11965911,,,,,,NEI,,,FAIRVIEW,Unknown,ANNAPOLIS,MD,00000,38.9776,-76.63939999999998,Anne Arundel,48811,,right_only
16002011,,,,,,NEI,,,Cianbro Corporation Baltimore Facility,605 Pittman Rd,Curtis Bay,MD,21226,39.195,-76.5657,Anne Arundel,332312,,right_only
14483011,,,,,,NEI,,,BAYVIEW(NS),Unknown,Unknown,MD,0,39.2976,-76.5507,Baltimore city,488210,,right_only
14538811,,,,,,NEI,,,"Veolia Water North America-Central, LLC",5800 Quarantine Rd,Curtis Bay,MD,21226,39.2086,-76.55939999999998,Baltimore city,325311,,right_only
5857111,,,,,,NEI,,,Furst Brothers Company,1215 Leadenhall St,Baltimore,MD,21230,39.2752,-76.6186,Baltimore city,321999,,right_only
6435511,,,,,,NEI,,,Constellation Energy Group - Philadelphia Road,1005 Brandon Shores Rd,Baltimore,MD,21205,39.2983,-76.56359999999998,Baltimore city,221112,,right_only
14528611,,,,,,NEI,,,Honeygo Run Reclamation Center,10710 Philadelphia Rd,Perry Hall,MD,21128,39.3825,-76.4345,Baltimore,562219,,right_only
12546711,,,,,,NEI,,,WOODBINE,Unknown,WOODBINE,MD,00000,39.3834,-77.0703,Carroll,48811,,right_only
14529311,,,,,,NEI,,,BRC Railcar Service Company,PO Box,Elk Mills,MD,21920,39.6589,-75.82649999999998,Cecil,336510,,right_only
6982111,,,,,,NEI,,,Baxter Healthcare Corp Of Puerto Rico,Rd. 721 Km. 0.3 Mercedist Serralles Rd.,Aibonito,PR,705,18.1444,-66.2611,Aibonito,339112,,right_only
6982511,,,,,,NEI,,,Thermo King De Puerto Rico,517 Zona Industrial,Arecibo,PR,612,18.4694,-66.7239,Arecibo,336390,,right_only
14529911,,,,,,NEI,,,Pacemaker Press,6797 Bowmans Crossing,Frederick,MD,21701,39.3588,-77.42959999999998,Frederick,323111,,right_only
7129611,,,,,,NEI,,,Lutron Sm Inc,Carr #909 Kmo. 2 Sector Inductrial B. O. Mariana 2,Humacao,PR,792,18.145,-65.77,Humacao,335931,,right_only
14530511,,,,,,NEI,,,Wave,1415 Perryman Rd,Aberdeen,MD,21001,39.4767,-76.1983,Harford,332323,,right_only
6131811,,,,,,NEI,,,Bizerba Label Solutions,105 Industry Lane,Forest Hill,MD,21050,39.5808,-76.37999999999998,Harford,323113,,right_only
15079711,,,,,,NEI,,,"Savage Stone, LLC",PO Box 850,Jessup,MD,20794,39.1565,-76.8009,Howard,212321,,right_only
11950811,,,,,,NEI,,,BREEZECROFT seaport,Unknown,CHESTERTOWN,MD,00000,39.2556,-76.2069,Kent,48811,,right_only
14530011,,,,,,NEI,,,"Maryland Stone, Inc. - Essroc Site",875 Oxford Ave,Buckeystown,MD,21717,39.348,-77.4264,Frederick,212312,,right_only
12050911,,,,,,NEI,,,RECOMPENSE FARM,Unknown,CLEMENTS,MD,00000,38.3085,-76.7247,St. Mary's,48811,,right_only
14533311,,,,,,NEI,,,Forty West Municipal Landfill,12630 Earth Care Rd,Hagerstown,MD,21740,39.6626,-77.816,Washington,562212,,right_only
16004211,,,,,,NEI,,,"Lafarge Mid-Atlantic, LLC - Rockdale Quarry",1954 Greenspring Drive,Clear Spring,MD,21722,39.6878,-77.8344,Washington,212319,,right_only
9564811,,,,,,NEI,,,American Infrastructure - MD,PO Box 790,Eden,MD,21822,38.2917,-75.6372,Wicomico,324121,,right_only
6572411,,,,,,NEI,,,Central Sanitary Landfill,7091 Central Site Lane,Newark,MD,21841,38.2172,-75.3161,Worcester,562212,,right_only
11763411,,,,,,NEI,,,HANOVER,Unknown,HANOVER,PA,00000,39.7926,-77.02469999999998,Adams,48811,,right_only
9202111,,,,,,NEI,,,Doylestown,Unknown,Doylestown,PA,00000,40.3331,-75.12229999999998,Bucks,48811,,right_only
12264211,,,,,,NEI,,,EXTON,Unknown,EXTON,PA,00000,40.0187,-75.6363,Chester,48811,,right_only
9193711,,,,,,NEI,,,Brandywine,Unknown,West Chester,PA,00000,39.9901,-75.5819,Chester,48811,,right_only
9197511,,,,,,NEI,,,Chester County G O Carl,Unknown,Coatesville,PA,00000,39.979,-75.86549999999998,Chester,48811,,right_only
9187111,,,,,,NEI,,,Port Meadville,Unknown,Meadville,PA,00000,41.6265,-80.21469999999998,Crawford,48811,,right_only
11743711,,,,,,NEI,,,BOTSFORD AERODROME,Unknown,SHIPPENSBURG,PA,00000,40.1134,-77.4542,Cumberland,48811,,right_only
12471111,,,,,,NEI,,,CARLISLE,Unknown,CARLISLE,PA,00000,40.1879,-77.1743,Cumberland,48811,,right_only
12471211,,,,,,NEI,,,CARLISLE BARRACKS,Unknown,CARLISLE,PA,00000,40.2001,-77.16639999999998,Cumberland,48811,,right_only
11879011,,,,,,NEI,,,COMMUNITY MEDICAL CENTER,Unknown,SCRANTON,PA,00000,41.4001,-75.6469,Lackawanna,48811,,right_only
11758511,,,,,,NEI,,,RANCH HILL,Unknown,SLATINGTON,PA,00000,40.7258,-75.57609999999998,Lehigh,48811,,right_only
12234711,,,,,,NEI,,,BUTZ,Unknown,ALLENTOWN,PA,00000,40.6043,-75.5621,Lehigh,48811,,right_only
12234211,,,,,,NEI,,,HERMITAGE,Unknown,SHARON,PA,00000,41.2014,-80.4223,Mercer,48811,,right_only
9189411,,,,,,NEI,,,Grove City,Unknown,Grove City,PA,00000,41.146,-80.1678,Mercer,48811,,right_only
11537811,,,,,,NEI,,,WYETH-AYERST NR,Unknown,COLLEGEVILLE,PA,00000,40.1587,-75.46339999999998,Montgomery,48811,,right_only
11634411,,,,,,NEI,,,GEISINGER ROOFTOP,Unknown,DANVILLE,PA,00000,40.9729,-76.6041,Montour,48811,,right_only
14486611,,,,,,NEI,,,BETHLEHEM,Unknown,Unknown,PA,0,40.6131,-75.3622,Northampton,488210,,right_only
11795611,,,,,,NEI,,,SUNBURY,Unknown,SUNBURY,PA,00000,40.8918,-76.77889999999998,Northumberland,48811,,right_only
11987011,,,,,,NEI,,,SUNBURY COMMUNITY HOSPITAL,Unknown,SUNBURY,PA,00000,40.8618,-76.7775,Northumberland,48811,,right_only
14486711,,,,,,NEI,,,ENOLA,Unknown,Unknown,PA,0,40.3295,-76.91679999999998,Perry,488210,,right_only
11907811,,,,,,NEI,,,CHILDREN'S HOSPITAL,Unknown,PHILADELPHIA,PA,00000,39.9482,-75.1943,Philadelphia,48811,,right_only
3873411,,,,,,NEI,,,SUN CO/SCHUYLKILL TANK FARM,3144 PASSYUNK AVE,PHILADELPHIA,PA,19145,39.9081,-75.2141,Philadelphia,424710,,right_only
12060111,,,,,,NEI,,,TIDIOUTE,Unknown,TIDIOUTE,PA,00000,41.6909,-79.36589999999998,Warren,48811,,right_only
11730311,,,,,,NEI,,,YORK HOSPITAL ALTERNATE,Unknown,YORK,PA,00000,39.9439,-76.7423,York,48811,,right_only
11811411,,,,,,NEI,,,YORK ELECTRO-PANEL PSNL USE,Unknown,YORK,PA,00000,40.0334,-76.66639999999998,York,48811,,right_only
3001411,,,,,,NEI,,,R H Sheppard Co Inc,Rear 447 E. Middle St.,Hanover,PA,17331,39.8055,-76.97249999999998,York,331511,,right_only
9185511,,,,,,NEI,,,York,Unknown,York,PA,00000,39.917,-76.873,York,48811,,right_only
14489911,,,,,,NEI,,,CLIFTONFORGE,Unknown,Unknown,VA,0,37.8133,-79.8293,Alleghany,488210,,right_only
12110111,,,,,,NEI,,,FINCASTLE,Unknown,FINCASTLE,VA,00000,37.5224,-79.852,Botetourt,48811,,right_only
12113211,,,,,,NEI,,,DEFENSE SUPPLY CENTER RICHMOND,Unknown,RICHMOND,VA,00000,37.4236,-77.45059999999998,Chesterfield,48811,,right_only
13727711,,,,,,NEI,,,Range Resources-Pine Mountain Inc,406 West Main St,Nora,VA,24212,37.0341,-82.3164,Dickenson,211111,,right_only
12100611,,,,,,NEI,,,ROCKINGHAM MEMORIAL HOSPITAL,Unknown,HARRISONBURG,VA,00000,38.4401,-78.872,Harrisonburg city,48811,,right_only
12113011,,,,,,NEI,,,WHITE STONE FAMILY PRACTICE,Unknown,WHITE STONE,VA,00000,37.6442,-76.3952,Lancaster,48811,,right_only
14490011,,,,,,NEI,,,COLLIER,Unknown,Unknown,VA,0,37.1748,-77.42029999999998,Petersburg city,488210,,right_only
12114711,,,,,,NEI,,,HENSHAW,Unknown,HOPEWELL,VA,00000,37.2524,-77.15269999999998,Prince George,48811,,right_only
4944511,,,,,,NEI,,,US Army Garrison and Fort Lee,1816 Shop Rd,Fort Lee,VA,23801,37.2431,-77.32139999999998,Prince George,928110,,right_only
14489811,,,,,,NEI,,,ACCA,Unknown,Unknown,VA,0,37.5739,-77.471,Richmond city,488210,,right_only
14490211,,,,,,NEI,,,SOUTHROANOKE,Unknown,Unknown,VA,0,37.2538,-79.947,Roanoke city,488210,,right_only
12026111,,,,,,NEI,,,VIRGINIA BEACH MUNI,Unknown,VIRGINIA BEACH,VA,00000,36.751,-76.0583,Virginia Beach city,48811,,right_only
12088811,,,,,,NEI,,,MARTY 1,Unknown,COEBURN,VA,00000,36.9401,-82.48149999999998,Wise,48811,,right_only
7709511,,,,,,NEI,,,EQT Gathering LLC - Comp L #2,Rte 610 N,Appalachia,VA,24216,36.9875,-82.6674,Wise,486210,,right_only
6270011,,,,,,NEI,,,"ALLEGHENY WOOD PRODUCTS,INC. PLANT 4",AIRPORT ROAD,PETERSBURG,WV,26847,38.9881,-79.1481,Grant,321113,,right_only
12274511,,,,,,NEI,,,BLUEFIELD RGNL MEDICAL CENTER,Unknown,BLUEFIELD,WV,00000,37.2556,-81.23609999999998,Mercer,48811,,right_only
12273811,,,,,,NEI,,,UNIVERSITY HOSPITAL,Unknown,MORGANTOWN,WV,00000,39.6501,-79.9581,Monongalia,48811,,right_only
6776311,,,,,,NEI,,,MONONGAHELA POWER CO.-WILLOW ISLAND,ROUTE 2,WILLOW ISLAND,WV,26134,39.3669,-81.29999999999998,Pleasants,221112,,right_only
12274811,,,,,,NEI,,,SNOWSHOE,Unknown,SNOWSHOE,WV,00000,38.4104,-79.9953,Pocahontas,48811,,right_only
6961311,,,,,,NEI,,,NASA Goddard Space Flight Center,Wallops Flight Facility Code 205 W. Building N-161,Wallops Island,VA,23337,37.9333,-75.45,Accomack,927110,,right_only
6342011,,,,,,NEI,,,MARATHON PETROLEUM COMPANY LP KENOVA,23RD STREET AT RIVER,KENOVA,WV,25530,38.4044,-82.5883,Wayne,48832,,right_only
9036711,,,,,,NEI,,,Wood County Airport Gil,Unknown,Parkersburg,WV,00000,39.3428,-81.4467,Wood,48811,,right_only
7213011,,,,,,NEI,,,Weyerhaeuser NR Company,4970 Hwy. 31,Castleberry,AL,36432,31.3302,-87.0263,Conecuh,321213,,right_only
7213111,,,,,,NEI,,,"Coosa Pole, Inc",492 Woodlands Lane,Goodwater,AL,35072,33.0433,-86.04479999999998,Coosa,321113,,right_only
7440011,,,,,,NEI,,,Jenkins Brick Company,6250 Coosada Rd,Coosada,AL,36020,32.4923,-86.3306,Elmore,327120,,right_only
10902211,,,,,,NEI,,,BESSEMER CARRAWAY,Unknown,BESSEMER,AL,00000,33.3723,-86.9903,Jefferson,48811,,right_only
12577911,,,,,,NEI,,,VULCAN PAINTERS AT ACIPCO,2930 16th ST N,Birmingham,AL,35202,33.5434,-86.8429,Jefferson,238320,,right_only
15645111,,,,,,NEI,,,"Oak Grove Resources, LLC",8800 Oak Grove Mine RD,Adger,AL,35006,33.4389,-87.1352,Jefferson,212112,,right_only
7918711,,,,,,NEI,,,UNITED STATES STEEL CORPORATIONFAIRFIELD PIPE MIL,5700 Valley RD,Fairfield,AL,35064,33.4831,-86.92189999999998,Jefferson,331110,,right_only
1060411,,,,,,NEI,,,Armstrong World Industries Inc,1251 Baker St,Mobile,AL,36603,30.6619,-88.051,Mobile,321219,,right_only
1112611,,,,,,NEI,,,BAMA CONCRETE BIRMINGHAM,2101 Pinson Valley PKY,Tarrant,AL,35217,33.5977,-86.7565,Jefferson,327320,,right_only
10911811,,,,,,NEI,,,MONROE COUNTY HOSPITAL,Unknown,MONROEVILLE,AL,00000,31.4978,-87.3211,Monroe,48811,,right_only
869111,,,,,,NEI,,,Wolverine Tube Division,2100 NE Market St,Decatur,AL,35601,34.5946,-86.9531,Morgan,331420,,right_only
10631711,,,,,,NEI,,,"MeadWestvaco Coated Board, LLC",Hwy 165 S,Cottonton,AL,36851,32.1783,-85.0283,Russell,321113,,right_only
12673011,,,,,,NEI,,,Jenkins Brick Company,4110 US Hwy 78,Leeds,AL,35094,33.582,-86.4696,St. Clair,327120,,right_only
2573511,,,,,,NEI,,,"SPURLIN INDUSTRIES, INC.",700 JACKSON WAY,PANAMA CITY,FL,32405,30.2007,-85.676,Bay,326191,,right_only
11118411,,,,,,NEI,,,GEZIK,Unknown,ROCKLEDGE,FL,00000,28.2519,-80.66889999999998,Brevard,48811,,right_only
552111,,,,,,NEI,,,SEA RAY BOATS INC,350 SEA RAY DRIVE,MERRITT ISLAND,FL,32953,28.4059,-80.703,Brevard,336612,,right_only
642411,,,,,,NEI,,,US AIR FORCE/PATRICK AFB,"45 SW/CC, 1201 EDWARD H. WHITE",PATRICK AFB,FL,32925,28.2526,-80.6087,Brevard,928110,,right_only
12422811,,,,,,NEI,,,LAKE CITY AIRPARK,Unknown,LAKE CITY,FL,00000,30.0438,-82.604,Columbia,48811,,right_only
12406811,,,,,,NEI,,,MANATEE,Unknown,OLD TOWN,FL,00000,29.5058,-82.9839,Dixie,48811,,right_only
11870211,,,,,,NEI,,,BAPTIST MEDICAL CENTER/BEACHES,Unknown,JACKSONVILLE BEACH,FL,00000,30.273,-81.39839999999998,Duval,48811,,right_only
3815211,,,,,,NEI,,,"LIST INDUSTRIES, INC.",401 NW 12TH AVE.,DEERFIELD BEACH,FL,33442,26.3252,-80.1174,Broward,337127,,right_only
12442511,,,,,,NEI,,,FLYING-H,Unknown,FRUITLAND PARK,FL,00000,28.8761,-81.88899999999998,Lake,48811,,right_only
12406711,,,,,,NEI,,,JORDAN,Unknown,BELLEVIEW,FL,00000,29.0141,-81.9781,Marion,48811,,right_only
1056811,,,,,,NEI,,,"OAK GROVE RESOURCES,LLC",8800 Oak Grove Mine RD,Adger,AL,35006,33.4396,-87.14369999999998,Jefferson,211111,,right_only
11523111,,,,,,NEI,,,DOLPHIN STADIUM,Unknown,MIAMI,FL,00000,25.9598,-80.23699999999998,Miami-Dade,48811,,right_only
9804611,,,,,,NEI,,,Miami,Unknown,Miami,FL,00000,25.7783,-80.17029999999998,Miami-Dade,48811,,right_only
9806211,,,,,,NEI,,,Miami Intl,Unknown,Miami,FL,00000,25.7881,-80.3148,Miami-Dade,48811,,right_only
12009011,,,,,,NEI,,,"BROOKSVILLE INTL AIRWAYS, INC.",Unknown,ORLANDO,FL,00000,28.4239,-81.4597,Orange,48811,,right_only
12392011,,,,,,NEI,,,FLORIDA HOSPITAL EAST ORLANDO,Unknown,ORLANDO,FL,00000,28.5408,-81.2808,Orange,48811,,right_only
11816611,,,,,,NEI,,,FLORIDA HOSPITAL KISSIMMEE,Unknown,KISSIMMEE,FL,00000,28.3153,-81.4059,Osceola,48811,,right_only
12358511,,,,,,NEI,,,KISSIMMEE,Unknown,KISSIMMEE,FL,00000,28.2836,-81.409,Osceola,48811,,right_only
11190111,,,,,,NEI,,,A I M,Unknown,BOCA RATON,FL,00000,26.4156,-80.1914,Palm Beach,48811,,right_only
899211,,,,,,NEI,,,OKEELANTA CORP,21250 US HWY 27 SOUTH,SOUTH BAY,FL,33493,26.5778,-80.75199999999998,Palm Beach,311314,,right_only
11620111,,,,,,NEI,,,BAYFLITE ONE,Unknown,ODESSA,FL,00000,28.1939,-82.62059999999998,Pasco,48811,,right_only
12357711,,,,,,NEI,,,MEASE HOSPITAL EMERGENCY,Unknown,DUNEDIN,FL,00000,28.0142,-82.78199999999998,Pinellas,48811,,right_only
9780611,,,,,,NEI,,,Lake Wales Muni,Unknown,Lake Wales,FL,00000,27.8938,-81.6204,Polk,48811,,right_only
9754611,,,,,,NEI,,,Burke County,Unknown,Waynesboro,GA,00000,33.0409,-82.004,Burke,48811,,right_only
12757211,,,,,,NEI,,,Southwire Company Carrollton Utility Products Plant,One Southwire Drive,Carrollton,GA,30119,33.5648,-85.07049999999998,Carroll,335929,,right_only
9736411,,,,,,NEI,,,Emanuel County,Unknown,Swainsboro,GA,00000,32.6082,-82.3687,Emanuel,48811,,right_only
14478611,,,,,,NEI,,,HOWELLS,Unknown,Unknown,GA,0,33.8126,-84.43219999999998,Fulton,488210,,right_only
14478811,,,,,,NEI,,,HULSEY,Unknown,Unknown,GA,0,33.7542,-84.3572,Fulton,488210,,right_only
15580111,,,,,,NEI,,,Sowega Power LLC,2273 Hatcher Hill Rd,Baconton,GA,None,31.387,-84.0809,Mitchell,221112,,right_only
5625811,,,,,,NEI,,,Gaddie Shamrock LLC - Portable Plant,5045 KY 55 S,Columbia,KY,42728,37.0461,-85.275,Adair,212312,,right_only
5606011,,,,,,NEI,,,Hanson Aggregates Midwest LLC - Tyrone Quarry,1645 Tyrone Rd,Lawrenceburg,KY,40342,38.0381,-84.8467,Anderson,212312,,right_only
13415011,,,,,,NEI,,,Bavarian Trucking Company Inc,12764 McCoy Fork Rd,Walton,KY,41094,38.8617,-84.6678,Boone,562212,,right_only
6101911,,,,,,NEI,,,Martin Marietta Aggregates,3503 Bellview Rd,Petersburg (Boone),KY,41080,39.0611,-84.8828,Boone,212321,,right_only
6005111,,,,,,NEI,,,Bourbon Limestone Co Inc,2470 Fords Mill Rd,Paris,KY,40361,38.1892,-84.2883,Bourbon,212312,,right_only
5074511,,,,,,NEI,,,Kanawha River Terminals LLC,US 23 S,Catlettsburg,KY,41129,38.4733,-82.62779999999998,Boyd,212112,,right_only
10682311,,,,,,NEI,,,Blackrock Trailers,300 KY 44 E,Shepherdsville,KY,41065,37.9917,-85.71169999999998,Bullitt,336212,,right_only
6639111,,,,,,NEI,,,Irving Materials Inc,510 Gardner Camp Rd,Morgantown,KY,42261,37.2081,-86.7081,Butler,32732,,right_only
6504811,,,,,,NEI,,,Lafarge West Inc - Fredonia Quarry Portable Plant,297 Fredonia Quarry Rd,Fredonia,KY,42411,37.1731,-88.0378,Caldwell,212312,,right_only
6506011,,,,,,NEI,,,Welch Concrete Products,6580 US 641 N,Almo,KY,42020,36.705,-88.30079999999998,Calloway,327320,,right_only
11825111,,,,,,NEI,,,CASEY COUNTY HOSPITAL,Unknown,LIBERTY,KY,00000,37.318,-84.9321,Casey,48811,,right_only
6645211,,,,,,NEI,,,Blue Star Plastics Inc,801 Nandino Blvd,Lexington,KY,40511,38.0803,-84.4975,Fayette,326199,,right_only
5071811,,,,,,NEI,,,Frankfort Regional Medical Center,299 Kings Daughter Dr,Frankfort,KY,40601,38.1664,-84.9019,Franklin,62211,,right_only
13638811,,,,,,NEI,,,TFO Slag Products Inc - Portable,50 Ellis Ln,Ghent,KY,41045,38.7717,-84.9658,Gallatin,324121,,right_only
6094511,,,,,,NEI,,,Scottys Contracting & Stone LLC - Grayson Quarry,450 Quarry Rd,Leitchfield,KY,42755,37.4778,-86.3236,Grayson,212312,,right_only
5343411,,,,,,NEI,,,The Wells Group LLC,1068 Port Rd,Wurtland,KY,41144,38.5522,-82.77249999999998,Greenup,32732,,right_only
6097011,,,,,,NEI,,,Green Valley Env Corp,1551 Green Valley Dr,Ashland,KY,41102,38.3997,-82.8122,Greenup,562212,,right_only
9617911,,,,,,NEI,,,Glass Aggregates LLC - Hart Co Stone,KY 218,Horse Cave,KY,42749,37.18,-85.8789,Hart,212312,,right_only
5995711,,,,,,NEI,,,Patriot Coal Co LP,19070 KY 1078 S,Henderson,KY,42420,37.7286,-87.3961,Henderson,212111,,right_only
5927711,,,,,,NEI,,,Nally & Haydon Surfacing LLC - Lebanon Quarry,1270 KY 208,Lebanon,KY,40033,37.5561,-85.2681,Marion,212312,,right_only
5933011,,,,,,NEI,,,The Walker Co of KY Inc - Menifee Stone,KY 713,Frenchburg,KY,40322,37.9381,-83.6581,Menifee,212312,,right_only
5195411,,,,,,NEI,,,The Walker Co Of Ky Inc - Montgomery Stone Portable Plant,Donaldson Creek Rd,Mount Sterling,KY,40353,38.1089,-84.0631,Montgomery,212312,,right_only
5272111,,,,,,NEI,,,Sprowl Lumber Co Inc,11882 Fountain Run,Fountain Run,KY,42133,36.7236,-85.9397,Monroe,321113,,right_only
5822911,,,,,,NEI,,,Rowan Co Bd Of Education,121 E 2nd St,Morehead (Rowan),KY,42431,38.2733,-83.42669999999998,Rowan,61111,,right_only
5238011,,,,,,NEI,,,Nally & Gibson Georgetown LLC,1267 E Main St,Georgetown (Scott),KY,40324,38.2035,-84.52859999999998,Scott,212312,,right_only
7366111,,,,,,NEI,,,Aichi Forge USA Inc,596 Triport Rd,Georgetown (Scott),KY,40324,38.2849,-84.5481,Scott,332111,,right_only
6047511,,,,,,NEI,,,Hanson Aggregates Midwest LLC - Portable Pugmill #2,211 Old Nashville Rd,Woodburn,KY,42170,36.8253,-86.55029999999998,Simpson,212312,,right_only
9600411,,,,,,NEI,,,Taylor County,Unknown,Campbellsville,KY,00000,37.3583,-85.30939999999998,Taylor,48811,,right_only
13422211,,,,,,NEI,,,American Howa Kentucky Inc,445 Jody Richards Dr,Bowling Green,KY,42101,37.0372,-86.3281,Warren,33636,,right_only
5971711,,,,,,NEI,,,Ready Mix Concrete & Block,305 Victory Dr,Monticello (Wayne),KY,42633,36.8297,-84.83029999999998,Wayne,327320,,right_only
9592811,,,,,,NEI,,,Wayne County,Unknown,Monticello,KY,00000,36.8553,-84.8561,Wayne,48811,,right_only
14482611,,,,,,NEI,,,CORBIN,Unknown,Unknown,KY,0,36.9355,-84.09139999999998,Whitley,488210,,right_only
7183211,,,,,,NEI,,,"Transmontaigne Operating Company LP, Collins Piedmont Terminal Numbe",135 Highway 588 East,Collins,MS,39428,31.6409,-89.5186,Covington,424720,,right_only
14484311,,,,,,NEI,,,NORTH JACKSON,Unknown,Unknown,MS,0,32.3243,-90.1874,Hinds,488210,,right_only
7305211,,,,,,NEI,,,"Florida Gas Transmission Company, Carnes Compressor Station",201 Florida Gas Road,Carnes,MS,39455,30.9035,-89.3272,Stone,486210,,right_only
9460211,,,,,,NEI,,,Iuka,Unknown,Iuka,MS,00000,34.7723,-88.16589999999998,Tishomingo,48811,,right_only
12131511,,,,,,NEI,,,SOUTHERN SKIES,Unknown,TAYLORSVILLE,NC,00000,35.9603,-81.1731,Alexander,48811,,right_only
12517711,,,,,,NEI,,,CAPE FEAR VALLEY MEDICAL CENTER,Unknown,FAYETTEVILLE,NC,00000,35.0335,-78.9372,Cumberland,48811,,right_only
9352411,,,,,,NEI,,,Duplin Co,Unknown,Kenansville,NC,00000,35.0001,-77.9817,Duplin,48811,,right_only
14484911,,,,,,NEI,,,ROCKYMOUNT,Unknown,Unknown,NC,0,35.9228,-77.80329999999998,Edgecombe,488210,,right_only
9348511,,,,,,NEI,,,Tarboro-Edgecombe,Unknown,Tarboro,NC,00000,35.9371,-77.5466,Edgecombe,48811,,right_only
15659111,,,,,,NEI,,,Ready Mixed Concrete Company -- Rural Hall Plant,633 Angus Street,Rural Hall,NC,27045,36.2155,-80.29439999999998,Forsyth,327320,,right_only
7733811,,,,,,NEI,,,Baxter Healthcare Corp,65 Pitt Station Road,Marion,NC,28752,35.8375,-81.9931,McDowell,325412,,right_only
8421911,,,,,,NEI,,,"Flint Hills Resources, LP",3308 River Road,Wilmington,NC,28412,34.188,-77.9521,New Hanover,42512,,right_only
14448111,,,,,,NEI,,,OLDSPENCER,Unknown,Unknown,NC,0,35.6857,-80.4325,Rowan,488210,,right_only
9300511,,,,,,NEI,,,Sampson County Disposal LLC,7434 Roseboro Hwy,Roseboro,NC,28382,34.9857,-78.46169999999998,Sampson,562212,,right_only
12488511,,,,,,NEI,,,BREVARD,Unknown,BREVARD,NC,00000,35.2226,-82.72679999999998,Transylvania,48811,,right_only
11561911,,,,,,NEI,,,WESTERN WAKE MEDICAL CENTER,Unknown,CARY,NC,00000,35.7392,-78.7822,Wake,48811,,right_only
12097511,,,,,,NEI,,,ABBEVILLE COUNTY MEMORIAL HOSPITAL,Unknown,ABBEVILLE,SC,00000,34.1603,-82.3833,Abbeville,48811,,right_only
9187911,,,,,,NEI,,,Bamberg County,Unknown,Bamberg,SC,00000,33.3045,-81.1084,Bamberg,48811,,right_only
12387611,,,,,,NEI,,,BEAUFORT COUNTY,Unknown,BEAUFORT,SC,00000,32.4121,-80.6346,Beaufort,48811,,right_only
4834811,,,,,,NEI,,,GEORGIA PACIFIC WOOD PRODUCTS LLC RUSSEL,1851 HWY 35,RUSSELLVILLE,SC,29476,33.403,-79.9804,Berkeley,321212,,right_only
11886911,,,,,,NEI,,,GAFFNEY,Unknown,GAFFNEY,SC,00000,35.1392,-81.6956,Cherokee,48811,,right_only
8335611,,,,,,NEI,,,NEW YORK WIRE WALTERBORO,1497 INDUSTRIAL RD,WALTERBORO,SC,29488,32.9508,-80.62309999999998,Colleton,31321,,right_only
6519211,,,,,,NEI,,,BORAL BRICKS:VAN WYCK,0,VAN WYCK,SC,29744,34.8593,-80.8484,Lancaster,327120,,right_only
11426611,,,,,,NEI,,,DARDEN,Unknown,GASTON,SC,00000,33.8407,-81.1837,Lexington,48811,,right_only
6194711,,,,,,NEI,,,GEORGIA PACIFIC WOOD PRODUCTS LLC,191 GEORGIA PACIFIC BLVD,PROSPERITY,SC,29127,34.2163,-81.4978,Newberry,321113,,right_only
9154411,,,,,,NEI,,,Newberry County,Unknown,Newberry,SC,00000,34.3093,-81.6397,Newberry,48811,,right_only
11693211,,,,,,NEI,,,HOLLY HILL,Unknown,HOLLY HILL,SC,00000,33.301,-80.394,Orangeburg,48811,,right_only
5720611,,,,,,NEI,,,ROSEBURG FOREST PRODUCTS,625 FIVE CHOP RD,ORANGEBURG,SC,29115,33.4913,-80.8392,Orangeburg,321211,,right_only
5722111,,,,,,NEI,,,ROSEBURG FOREST PROD S LTD PARTNERSHIP,1972 GARDNER BLVD HWY 453,HOLLY HILL,SC,29059,33.2801,-80.4362,Orangeburg,321219,,right_only
14486911,,,,,,NEI,,,CAYCE,Unknown,Unknown,SC,0,33.9779,-81.0434,Richland,488210,,right_only
14946311,,,,,,NEI,,,"ROGERS GROUP, INC - Shelbyville Asphalt",2540 Hwy. 41A South,Shelbyville,TN,37160,35.4629,-86.37149999999998,Bedford,324121,,right_only
9158511,,,,,,NEI,,,Carroll County,Unknown,Huntingdon,TN,00000,36.0893,-88.4633,Carroll,48811,,right_only
15566211,,,,,,NEI,,,American Defense Finishing,"478 Allied Drive, Suite 203",Nashville,TN,37211,36.0983,-86.74559999999998,Davidson,332813,,right_only
2892711,,,,,,NEI,,,"Advanced Plating, Inc",1425 Cowan Court,Nashville,TN,37207,36.1797,-86.7778,Davidson,332813,,right_only
2892811,,,,,,NEI,,,Perfection Plating Inc.,104 Queen Avenue,Nashville,TN,37207,36.2081,-86.7664,Davidson,332813,,right_only
2894011,,,,,,NEI,,,"Metro Ready Mix Concrete, Inc.",1020 Visco Drive,Nashville,TN,37210,36.1589,-86.7467,Davidson,32732,,right_only
2894411,,,,,,NEI,,,Fender Musical Instruments,516 Rundle Avenue,Nashville,TN,37210,36.1344,-86.74559999999998,Davidson,339992,,right_only
2895111,,,,,,NEI,,,AEES DixieWire Nashville,5901 California Ave,Nashville,TN,37209,36.1461,-86.805,Davidson,323111,,right_only
2895211,,,,,,NEI,,,"Mid-Tech Gage, Inc",1112 Myatt Blvd,Madison,TN,37115,36.2794,-86.6897,Davidson,332813,,right_only
2895511,,,,,,NEI,,,North American Composites,528 Brick Church Park Drive,Nashville,TN,37207,36.23,-86.7853,Davidson,325211,,right_only
3928911,,,,,,NEI,,,Sun Chemical Corp,404 Harding Industrial Drive,Nashville,TN,37211,36.1083,-86.7592,Davidson,32591,,right_only
6444411,,,,,,NEI,,,GAF Corporation,970 Fiberglass Rd,Nashville,TN,37211,36.1361,-86.75,Davidson,327212,,right_only
14946611,,,,,,NEI,,,"ROGERS GROUP, INC - Pulaski Asphalt",Highway 166 South,Pulaski,TN,38478,35.1444,-87.0511,Giles,324121,,right_only
4761411,,,,,,NEI,,,"Horizon Milling, LLC",1B Riverside Lane,Chattanooga,TN,37406,35.0822,-85.2733,Hamilton,311211,,right_only
7951611,,,,,,NEI,,,"Kordsa, Inc.",4501 North Access Road,Chattanooga,TN,37415-3899,35.1143,-85.2428,Hamilton,325211,,right_only
6339611,,,,,,NEI,,,Goodyear Tire & Rubber Co,890 Pineview Rd.,Asheboro,NC,27203,35.75,-79.81669999999998,Randolph,332813,,right_only
3787211,,,,,,NEI,,,"POWELL VALLEY ELECTRIC COOPERATIVE, INC.",Route 33 Kyles Ford Hwy,Kyles Ford,TN,37765,36.575,-83.0322,Hancock,221118,,right_only
2934511,,,,,,NEI,,,Maverick Tube LLC,Off State Highway 57,Counce,TN,38326,35.0415,-88.28619999999998,Hardin,33121,,right_only
2892911,,,,,,NEI,,,S & H Chrome Plating & Powder Coating,817 Madison Industrial Road,Madison,TN,37115,36.2794,-86.6883,Davidson,332813,,right_only
2893311,,,,,,NEI,,,Chromemasters Inc,826 Third Avenue North,Nashville,TN,37201,36.1714,-86.7822,Davidson,332813,,right_only
9155811,,,,,,NEI,,,Hawkins County,Unknown,Rogersville,TN,00000,36.4576,-82.885,Hawkins,48811,,right_only
9153511,,,,,,NEI,,,Henry County,Unknown,Paris,TN,00000,36.3382,-88.3829,Henry,48811,,right_only
14948511,,,,,,NEI,,,"ROGERS GROUP, INC - Pottsville Asphalt",646 Hwy. 99,Lewisburg,TN,37091,35.6247,-86.8113,Marshall,324121,,right_only
3730611,,,,,,NEI,,,"ROGERS GROUP, INC - Lewisburg Asphalt",600 Darnell-Mealer Rd.,Lewisburg,TN,37091,35.4558,-86.7746,Marshall,324121,,right_only
14947011,,,,,,NEI,,,"ROGERS GROUP, INC - Rhea Co. Portable Asphalt",7981 Old Washington Hwy.,Dayton,TN,37321,35.323,-84.53449999999998,Rhea,324121,,right_only
11239811,,,,,,NEI,,,WALDENS CREEK,Unknown,PIGEON FORGE,TN,00000,35.7904,-83.6068,Sevier,48811,,right_only
14487411,,,,,,NEI,,,TENNESSEE,Unknown,Unknown,TN,0,35.0251,-89.896,Shelby,488210,,right_only
12241111,,,,,,NEI,,,JOHNSON CITY MEDICAL CENTER,Unknown,JOHNSON CITY,TN,00000,36.3083,-82.38559999999998,Washington,48811,,right_only
14589811,,,,,,NEI,,,Diamond Construction Co,Rt 336- 2 miles S of Mendon,Mendon,IL,62351,40.0506,-91.273,Adams,324121,,right_only
3326911,,,,,,NEI,,,Central Stone Co,RR 1,Loraine,IL,62349,40.1579,-91.2028,Adams,212312,,right_only
3342711,,,,,,NEI,,,Prince Minerals Inc,630 Kentucky,Quincy,IL,62301,39.9459,-91.2914,Adams,325130,,right_only
3343811,,,,,,NEI,,,Sem Minerals LP,RR 3,Liberty,IL,62347,39.8943,-91.0317,Adams,212399,,right_only
3346211,,,,,,NEI,,,Central Stone Co,RR 1 Box 63,Richfield,IL,62365,39.7961,-91.104,Adams,212312,,right_only
10924311,,,,,,NEI,,,Mid-Illinois Concrete Inc,1311 S 4th Street,Greenville,IL,62246,38.8806,-89.41549999999998,Bond,212312,,right_only
2415611,,,,,,NEI,,,City Of Greenville,2000 S Elm St,Greenville,IL,62246,38.9021,-89.4293,Bond,921190,,right_only
2452211,,,,,,NEI,,,Rockford Sand & Gravel,4525 Irene Rd,Belvidere,IL,61008,42.2182,-88.89539999999998,Boone,212312,,right_only
2362611,,,,,,NEI,,,WL Miller Co,Rt 24 W,Mt Sterling,IL,62353,39.9963,-90.81,Brown,324121,,right_only
2381011,,,,,,NEI,,,ADM Grain Company,Gurney St,Lamoille,IL,61330,41.5324,-89.2814,Bureau,424510,,right_only
2381211,,,,,,NEI,,,Tri-Con Materials Inc,Illinois Route 26,Bureau,IL,61315,41.3035,-89.3741,Bureau,212312,,right_only
14981711,,,,,,NEI,,,C & H Gravel,I-57,Pesotum,IL,61863,39.92,-88.275,Champaign,212321,,right_only
2445211,,,,,,NEI,,,Premier Coop,107 N Grant,Longview,IL,61852,39.8852,-88.0625,Champaign,424510,,right_only
3236511,,,,,,NEI,,,Premier Cooperative,1 Main St,Dewey,IL,61840,40.3176,-88.2839,Champaign,424510,,right_only
932311,,,,,,NEI,,,United Feeds Inc-Busboom Division,101 Railroad,Royal,IL,61871,40.1942,-87.97079999999998,Champaign,424510,,right_only
15451911,,,,,,NEI,,,State Highway Construction Corp Inc,E800N and N2500E,Assumption,IL,62510,39.4624,-89.0639,Christian,324121,,right_only
1927611,,,,,,NEI,,,City Of Pana,Peabody Mine Rd,Pana,IL,62557,39.4132,-89.0818,Christian,327410,,right_only
3342911,,,,,,NEI,,,The Huck Group Inc,1100 N 28th,Quincy,IL,62301,39.9433,-91.3703,Adams,337110,,right_only
1942311,,,,,,NEI,,,Open Road Asphalt Co LLC,19300 N State Highway 1,Marshall,IL,62441,39.4302,-87.69,Clark,324121,,right_only
1942911,,,,,,NEI,,,Illini FS-Martinsville Facility,13791 N Cline Orchard Rd,Martinsville,IL,62442,39.3493,-87.83549999999998,Clark,424710,,right_only
14982311,,,,,,NEI,,,C & H Gravel Co,12142 Old Hwy 50,Flora,IL,62839,38.6734,-88.4363,Clay,212321,,right_only
1944411,,,,,,NEI,,,Bailey Grain Co,322 W 8th St,Flora,IL,62839,38.6741,-88.4911,Clay,424510,,right_only
10775311,,,,,,NEI,,,Bromley Excavating,8200 Old Hwy 50,Breese,IL,62230,38.6114,-89.5501,Clinton,423320,,right_only
14616911,,,,,,NEI,,,C & H Gravel Co,812 Adkins Dr,Charleston,IL,61920,39.5062,-88.1751,Coles,212321,,right_only
10692011,,,,,,NEI,,,Hanson Material Service,9101 W 47th St,Mc Cook,IL,60525,41.8054,-87.8478,Cook,212312,,right_only
10777911,,,,,,NEI,,,World's Largest Laundromat,6246 W Cermak Rd,Berwyn,IL,60402,41.8512,-87.7808,Cook,812320,,right_only
10772011,,,,,,NEI,,,BP Service Station #05066,809 W Green St,Urbana,IL,61801,40.1102,-88.2198,Champaign,447190,,right_only
10798211,,,,,,NEI,,,Brandenburg Ind Service Co,1511 W Webster Ave,Chicago,IL,60614,41.9216,-87.66719999999998,Cook,238910,,right_only
10801411,,,,,,NEI,,,Illinois Mining Corp,I-55 & Lagrage Rd,Willow Springs,IL,60480,41.759,-87.8617,Cook,212312,,right_only
10895011,,,,,,NEI,,,American Grading Co,5100 W Lawndale Ave,McCook,IL,60501-1075,41.7896,-87.83079999999998,Cook,562212,,right_only
10895711,,,,,,NEI,,,Bentley Specialties Inc,7345 Hamlin Ave,Skokie,IL,60076,42.0142,-87.72369999999998,Cook,311352,,right_only
10911211,,,,,,NEI,,,Midwest Micronutrients LLC,1705 Cottage Grove Ave,Ford Heights,IL,60411,41.4998,-87.596,Cook,325130,,right_only
10928011,,,,,,NEI,,,Earth Inc,321 Touhy Ave,Des Plains,IL,60103,42.0085,-87.9156,Cook,423320,,right_only
1758611,,,,,,NEI,,,Legendary Innovations LLC,903 S Prairieview Rd,Mahomet,IL,61853,40.1894,-88.3661,Champaign,336999,,right_only
14592611,,,,,,NEI,,,Rock Recycling,Harte Rd & Milwaukee Ave,Niles,IL,60714,42.0091,-87.79819999999998,Cook,212312,,right_only
14594511,,,,,,NEI,,,Brandenburg Ind Service Co,2820 S Ellis St,Chicago,IL,60616,41.843,-87.6144,Cook,238910,,right_only
14594711,,,,,,NEI,,,Illinois Mining Corp,10800 Rt 83,Lemont,IL,60439,41.6939,-87.936,Cook,212321,,right_only
14616011,,,,,,NEI,,,Illinois Mining Corp,Archer Ave 1/2 E of Rt 83,Willow Springs,IL,60480,41.7021,-87.9286,Cook,212321,,right_only
14971711,,,,,,NEI,,,Amercan Demolition Corp,2704 W Roscoe St,Chicago,IL,60616,41.9431,-87.696,Cook,238910,,right_only
14972411,,,,,,NEI,,,Illinois Mining Corp,N/W Corner Devon & River Roads,Des Plaines,IL,60016,41.996,-87.8622,Cook,212321,,right_only
14982811,,,,,,NEI,,,American Demolition Corp,422 Davis St,Evanston,IL,60201,42.0453,-87.6776,Cook,238190,,right_only
14984311,,,,,,NEI,,,American Demolition Corp,250 W 83rd,Chicago,IL,60620,41.7438,-87.6311,Cook,238910,,right_only
14984711,,,,,,NEI,,,American Demolition Corp,4900 S Merrimac Ave,Chicago,IL,60638,41.8038,-87.7775,Cook,238190,,right_only
15453611,,,,,,NEI,,,American Demolition Corp,10400 W North Ave,Melrose Park,IL,60160,41.9141,-87.8794,Cook,238190,,right_only
15453811,,,,,,NEI,,,ToughCuts Concrete Services Inc,I57 & Sauk Trail,Richton Park,IL,60471,41.4867,-87.7489,Cook,212321,,right_only
15455211,,,,,,NEI,,,American Demolition Corp,5800 S Stony Island Ave,Chicago,IL,60637,41.7894,-87.5875,Cook,238190,,right_only
15469911,,,,,,NEI,,,Sanders Cleaners,863 Sanders Rd,Northbrook,IL,60062,42.1372,-87.88039999999998,Cook,812320,,right_only
1756411,,,,,,NEI,,,Metropolitan Pier & Exposition Authority,2300 S Lake Shore Dr,Chicago,IL,60610,41.8532,-87.61239999999998,Cook,713990,,right_only
1776711,,,,,,NEI,,,Amcor American Metal Chem Corp,3546 S Morgan,Chicago,IL,60609,41.8295,-87.65139999999998,Cook,325998,,right_only
1879711,,,,,,NEI,,,Wisconsin Tool & Stamping Co,9521 W Ainslie St,Schiller Park,IL,60176,41.9673,-87.8661,Cook,332119,,right_only
1947811,,,,,,NEI,,,Devonshire Power Partners LLC,795 E 138th St,Dolton,IL,60419,41.6443,-87.59829999999998,Cook,221112,,right_only
2294811,,,,,,NEI,,,Combined Metals Corp,2401 W Grant,Bellwood,IL,60104,41.8902,-87.8827,Cook,423510,,right_only
2447511,,,,,,NEI,,,Metal Management Midwest Inc,9331 S Ewing,Chicago,IL,60617,41.727,-87.539,Cook,423930,,right_only
2453511,,,,,,NEI,,,Ortek Inc,7601 W 47th St,McCook,IL,60525-1508,41.8053,-87.8122,Cook,324191,,right_only
2551111,,,,,,NEI,,,Vulcan Construction Matrl 521 CCDD,1819 West 119th St,Chicago,IL,60643,41.652,-87.685,Cook,238990,,right_only
2619411,,,,,,NEI,,,USM Recycling,12841 S Pulaski Rd,Alsip,IL,60803,41.652,-87.7167,Cook,423930,,right_only
2620311,,,,,,NEI,,,Owens-Corning Fiberglas Tech,7734 W 59th St,Summit,IL,60501,41.7849,-87.8161,Cook,324122,,right_only
2631511,,,,,,NEI,,,Dai Environmental Inc,7100 Mannheim Rd,Rosemont,IL,60018,41.996,-87.8841,Cook,339999,,right_only
2648111,,,,,,NEI,,,John Sexton Sand & Gravel Corp,9800 W Central Rd,Des Plaines,IL,60016,42.0694,-87.8835,Cook,562212,,right_only
2734711,,,,,,NEI,,,Beverly Materials LLC,Beverly Rd 1/2 Mile S Of Rte 72,Hoffman Estates,IL,60120,42.0721,-88.2354,Cook,212312,,right_only
3229011,,,,,,NEI,,,Delta Airlines Inc,O'Hare International Airport,Chicago,IL,60666,41.976,-87.885,Cook,481111,,right_only
3230011,,,,,,NEI,,,Avon Energy Partners LLC,200 E 122nd St,Chicago,IL,60633,41.6762,-87.5706,Cook,221112,,right_only
3338211,,,,,,NEI,,,Industrial Specialty Chemicals Inc,16880 S Lathrop,Harvey,IL,60426,41.5828,-87.6412,Cook,325998,,right_only
3341211,,,,,,NEI,,,Dehler Manufacturing Co Inc,5801 W Dickens Ave,Chicago,IL,60639,41.9173,-87.7711,Cook,337124,,right_only
3354211,,,,,,NEI,,,North Star V Inc Perruso Cleaners,425 E 162nd St,South Holland,IL,60473,41.6004,-87.60639999999998,Cook,812320,,right_only
3392711,,,,,,NEI,,,Tomoegawa USA Inc,742 Glenn Ave,Wheeling,IL,60090,42.1258,-87.91979999999998,Cook,325130,,right_only
4613011,,,,,,NEI,,,Manan Medical Products Inc,241 W Palatine Rd,Wheeling,IL,60090,42.1084,-87.8251,Cook,423450,,right_only
7313611,,,,,,NEI,,,K-Five Construction Co,12401 S Cottage Grove Ave,Chicago,IL,60628,41.673,-87.60809999999998,Cook,324121,,right_only
9703911,,,,,,NEI,,,Environmental Cleansing Corp,999 N Elmhurst Rd,Mt Prospect,IL,60056,42.0842,-87.9333,Cook,339999,,right_only
9717311,,,,,,NEI,,,Unitech Prepress Solutions Inc,1950 Estes Ave,Elk Grove Village,IL,60007,42.0066,-87.95449999999998,Cook,323120,,right_only
9719111,,,,,,NEI,,,Diemand Printing Co Inc,4237 W 42nd Pl,Chicago,IL,60632,41.8162,-87.72979999999998,Cook,323111,,right_only
9720411,,,,,,NEI,,,Star Thermoplastic,2635 S Wabash Ave,Chicago,IL,60616,41.8452,-87.62529999999998,Cook,325991,,right_only
9720811,,,,,,NEI,,,American Demolition Corp,340 S Western Ave,Chicago,IL,60612,41.8764,-87.6871,Cook,238190,,right_only
9769611,,,,,,NEI,,,Brandenburg Industrial Service Co,5151 W 73rd St,Bedford Park,IL,60638,41.7601,-87.75069999999998,Cook,238910,,right_only
2667111,,,,,,NEI,,,Martin Marietta Materials Inc,Marathon Ave,Robinson,IL,62454,39.013,-87.769,Crawford,212312,,right_only
5413311,,,,,,NEI,,,Beverly Materials LLC,Beverly Rd and Prairie Stone Pkwy,Hoffman Estates,IL,60120,42.0687,-88.2342,Cook,212321,,right_only
2821311,,,,,,NEI,,,Vulcan Construction Materials LP,Peace Rd,DeKalb,IL,60115,41.9155,-88.7628,DeKalb,212312,,right_only
2821611,,,,,,NEI,,,Macklin Inc,Quarry Rd,Kirkland,IL,60146,42.1146,-88.88079999999998,DeKalb,212312,,right_only
10806411,,,,,,NEI,,,Brandenburg Industrial Service Co,340 S County Line Rd,Bensenville,IL,60106,41.9452,-87.9205,DuPage,238910,,right_only
10807811,,,,,,NEI,,,Chevron,22 W Irving Park Rd,Medinah,IL,60157,41.9768,-88.052,DuPage,447190,,right_only
10891311,,,,,,NEI,,,Good Choice Cleaners Inc,1295 S Naper Blvd,Naperville,IL,60540,41.7494,-88.11759999999998,DuPage,812320,,right_only
10893011,,,,,,NEI,,,Illinois Mining Corp,Division St & Iriving Park Rd,Bensenville,IL,60106,41.9585,-87.9221,DuPage,212312,,right_only
14479611,,,,,,NEI,,,BENSENVILLE,Unknown,Unknown,IL,0,41.955,-87.93309999999998,DuPage,488210,,right_only
14481211,,,,,,NEI,,,PROVISO,Unknown,Unknown,IL,0,41.8984,-87.9225,DuPage,488210,,right_only
1754411,,,,,,NEI,,,Odermath USA Inc,1651 Frontenac Rd,Naperville,IL,60540,41.7986,-88.22709999999998,DuPage,331420,,right_only
2530811,,,,,,NEI,,,Flowserve F&O Inc,211 Frontage Rd,Burr Ridge,IL,60527,41.7426,-87.93989999999998,DuPage,339991,,right_only
2652611,,,,,,NEI,,,Nicor Gas,90 N Finley Rd,Glen Ellyn,IL,60137,41.863,-88.03,DuPage,221210,,right_only
2786311,,,,,,NEI,,,West Shore Pipe Line Co,Route 83 and 22nd St,Oakbrook Terrace,IL,60181,41.8484,-87.95829999999998,DuPage,486910,,right_only
9773611,,,,,,NEI,,,West Shore Pipeline Co,5320 W 127th St,Alsip,IL,60803,41.6618,-87.7543,Cook,486910,,right_only
9774011,,,,,,NEI,,,Century Env Resources Inc,13005 S Hamlin Ct,Alsip,IL,60658-1538,41.6563,-87.71349999999998,Cook,562212,,right_only
9725511,,,,,,NEI,,,Illinois Mining Corp,I294 & Cermack Rd,Westchester,IL,60154,41.8479,-87.92,DuPage,212321,,right_only
9734911,,,,,,NEI,,,Hawthorne Cleaners,664 Pickwick Pl,Glen Ellyn,IL,60137,41.8602,-88.0605,DuPage,812320,,right_only
10874611,,,,,,NEI,,,Heuerman Bros Trucking LLC,14375 E 1600 Ave,Effingham,IL,62401,39.1484,-88.53539999999998,Effingham,339999,,right_only
14985511,,,,,,NEI,,,MBI Construction Inc,1601 S Raney St,Effingham,IL,62401,39.1088,-88.562,Effingham,327320,,right_only
2622811,,,,,,NEI,,,Chicap Pipeline Co,RR 1,Gibson City,IL,60936,40.4726,-88.3468,Ford,486110,,right_only
2623011,,,,,,NEI,,,T & T Cartage Inc,5 Miles E Of Cullom On Il 116,Cullom,IL,60929,40.8805,-88.1588,Ford,324121,,right_only
2623311,,,,,,NEI,,,Open Road Asphalt Company LLC,345 N 1800 E Rd,Paxton,IL,60957,40.451,-88.1191,Ford,324121,,right_only
8189711,,,,,,NEI,,,High Concrete Group LLC,100 Technology Ln,Paxton,IL,60957,40.4531,-88.11579999999998,Ford,327390,,right_only
10811811,,,,,,NEI,,,Central Illinois Energy Cooperative,23133 East County Highway 6,Canton,IL,61520,40.5007,-90.0049,Fulton,325193,,right_only
10812011,,,,,,NEI,,,W L Miller Co,26015 N Co 2 RR 1,Blyton,IL,61477,40.5663,-90.2751,Fulton,324121,,right_only
3207311,,,,,,NEI,,,American River Transportation Co,Dock/facility On Illinois River,Liverpool,IL,61543,40.3832,-90.016,Fulton,483211,,right_only
3226111,,,,,,NEI,,,Western Grain Marketing LLC,528 E Halsey St,Lewistown,IL,61542,40.401,-90.1503,Fulton,424510,,right_only
9711211,,,,,,NEI,,,Northfield Block Co,3400 Bungalow Rd,Channahon,IL,60410,41.3921,-88.37,Grundy,327331,,right_only
3368111,,,,,,NEI,,,BP Pipelines North America Inc,Hwy 96,Niota,IL,62358,40.5998,-91.305,Hancock,486110,,right_only
2341911,,,,,,NEI,,,Lafarge West Inc,RR 1,Cave In Rock,IL,62919,37.541,-88.241,Hardin,212312,,right_only
2362311,,,,,,NEI,,,Lafarge West Inc,RR 1,Cave In Rock,IL,62919,37.4992,-88.1764,Hardin,212312,,right_only
9709111,,,,,,NEI,,,Vulcan Construction Materials LP,Job Corps Rd,Golconda,IL,62938,37.4298,-88.3987,Hardin,212312,,right_only
2342911,,,,,,NEI,,,OMG Midwest Inc d/b/a Cessford Construction Co,RR 1 Box 32,Biggsville,IL,61418,40.8554,-90.8808,Henderson,212312,,right_only
2343511,,,,,,NEI,,,Cessford Construction Co,RR 1 Box 227,Stronghurst,IL,61480,40.721,-91.0181,Henderson,212312,,right_only
2361511,,,,,,NEI,,,Advanced Asphalt Co,Rt 78 & I 80,Annawan,IL,61234,41.4068,-89.90309999999998,Henry,324121,,right_only
2361811,,,,,,NEI,,,Tickle Asphalt Co,E 550th St,Colona,IL,61241,41.4479,-90.3287,Henry,324121,,right_only
2670911,,,,,,NEI,,,Chicap Pipeline Co,RR 1,Brownstown,IL,62418,38.9693,-88.9178,Fayette,486110,,right_only
15457411,,,,,,NEI,,,Augusta Fiberglass Coatings Inc,6725 North 500th St,Newton,IL,62448,38.9462,-88.2784,Jasper,326199,,right_only
9714311,,,,,,NEI,,,Trimble Oil Co,Melvin,Roberts,IL,60962,40.6317,-88.1834,Ford,424710,,right_only
10880611,,,,,,NEI,,,Bromley Excavating,13452 N Shiloh Dr,Mt Vernon,IL,62864,38.355,-88.9689,Jefferson,423320,,right_only
8190211,,,,,,NEI,,,Orient # 6 Mine,Rural,Waltonville,IL,62894,38.1942,-89.0248,Jefferson,212112,,right_only
2440911,,,,,,NEI,,,Kimaterials Inc,16750 Fieldon Hollow Rd,Fieldon,IL,62031,39.0815,-90.4945,Jersey,212312,,right_only
10817411,,,,,,NEI,,,Crawford Quarry,10711 S Whitton Rd,Hanover,IL,61041,42.2106,-90.2897,Jo Daviess,212312,,right_only
2443511,,,,,,NEI,,,Doniver Inc,17630 US 20 W,East Dubuque,IL,61025,42.4671,-90.5768,Jo Daviess,212321,,right_only
2444411,,,,,,NEI,,,Conmat Inc,13214 Route 20 W,Galena,IL,61036,42.4605,-90.4946,Jo Daviess,212312,,right_only
2512711,,,,,,NEI,,,BARD Materials-Warren,203 Winslow Rd,Warren,IL,61087,42.4882,-89.9838,Jo Daviess,327320,,right_only
2512811,,,,,,NEI,,,Conmat Inc,Ferry Landing Rd,Galena,IL,61036,42.408,-90.4438,Jo Daviess,212312,,right_only
10817511,,,,,,NEI,,,C & H Gravel Co,8395 St Rt 37 S,Cypress,IL,62923,37.3202,-89.0211,Johnson,212321,,right_only
10817611,,,,,,NEI,,,Southern Illinois Materials,Rt 37,Buncombe,IL,62912,37.4928,-88.96949999999998,Johnson,212321,,right_only
14480411,,,,,,NEI,,,EOLA,Unknown,Unknown,IL,0,41.7702,-88.2707,Kane,488210,,right_only
14612411,,,,,,NEI,,,Rock Recycling Inc,1151 Penny Rd,East Dundee,IL,60118,42.105,-88.2414,Kane,212312,,right_only
15457711,,,,,,NEI,,,Roquette America Inc,2211 Innovation Dr,Geneva,IL,60134,41.8859,-88.2639,Kane,541712,,right_only
1912311,,,,,,NEI,,,VCNA Prairie Inc,1151 Penny Rd,East Dundee,IL,60118,42.1033,-88.2428,Kane,212321,,right_only
2602611,,,,,,NEI,,,Fenzel Motor Sales,206 S State St,Hampshire,IL,60140,42.0976,-88.5305,Kane,339999,,right_only
2343211,,,,,,NEI,,,Cessford Construction Co,RR 1,Dallas City,IL,62330,40.6441,-91.1457,Henderson,212312,,right_only
7848211,,,,,,NEI,,,Dur-o-wal Inc-formerly,625 Crane Ave,Aurora,IL,60505-3213,41.7675,-88.27089999999998,Kane,332999,,right_only
5397611,,,,,,NEI,,,Illinois Fabricators Inc,265 S Kinzie Ave,Bradley,IL,60915,41.1417,-87.8511,Kankakee,331110,,right_only
5427911,,,,,,NEI,,,Natural Gas Pipeline of America,1/2 Mi S Of Rte 17,Union Hill,IL,60969,41.108,-88.14709999999998,Kankakee,486210,,right_only
5428611,,,,,,NEI,,,Bedrock Stone Co,2041 W 9000 N Rd,Manteno,IL,60950,41.2562,-87.8969,Kankakee,212312,,right_only
10842211,,,,,,NEI,,,47 Asphalt Co/Subsidiary of K-Five Construction,10425 Joliet Rd,Newark,IL,60541,41.4799,-88.4454,Kendall,324121,,right_only
10878011,,,,,,NEI,,,VCNA Prairie Inc,9391 Sherrill Rd,Morris,IL,60450,41.4643,-88.4304,Kendall,212312,,right_only
4597611,,,,,,NEI,,,ProBuild Co LLC,204 W Wheaton Dr,Yorkville,IL,60560,41.6836,-88.4514,Kendall,339999,,right_only
10822411,,,,,,NEI,,,Kendall County Concrete Crushing Inc,3115 Rt 23 N,Ottawa,IL,61350,41.385,-88.8362,La Salle,238190,,right_only
10822511,,,,,,NEI,,,One Hour National Inc,1120 Peoria St,Peru,IL,61354,41.331,-89.12949999999998,La Salle,812320,,right_only
14600511,,,,,,NEI,,,Southern Precision Sands LLC,1232 N 2803Rd St,Ottawa,IL,61350,41.3294,-88.9261,La Salle,325998,,right_only
5387311,,,,,,NEI,,,Beverly Materials LLC,Rutland Twp,Elgin,IL,60120,42.1523,-88.3621,Kane,212321,,right_only
4462011,,,,,,NEI,,,Advanced Asphalt Co,Route 51,Peru,IL,61354,41.3964,-89.1179,La Salle,324121,,right_only
4498311,,,,,,NEI,,,RiverStone Group Inc,Sheridan,Sheridan,IL,60551,41.5437,-88.64879999999998,La Salle,212312,,right_only
4498711,,,,,,NEI,,,Cargil Inc,Dee Bennett Rd,Ottawa,IL,61350,41.3286,-88.9051,La Salle,424510,,right_only
