FRS_ID,FlowName,Compartment,FlowAmount,FlowSum,Unit,Concentration kg/kg,Source,Year,FacilityName,State,Latitude,Longitude,County,NAICS,SIC,FacilityID
110070081820.0,Carbon Dioxide,air,720501400.0,720511235.6976016,kg,0.9999863490017723,GHGRP,2017.0,Linde Facility 0497,TX,29.89018,-93.948251,JEFFERSON COUNTY,325120,,1002023
110043814726.0,Carbon Dioxide,air,172272500.0,172272500.0,kg,1.0,GHGRP,2017.0,"Linde Hydrogen, c/o Chevron Refinery",UT,40.82147,-111.92162,SALT LAKE COUNTY,325120,,1002041
110011942862.0,Carbon Dioxide,air,95741000.0,95849323.8444681,kg,0.9988698528051813,GHGRP,2017.0,Matheson - LIMA I PLANT,OH,40.72211,-84.11329,ALLEN COUNTY,325120,,1002042
110071160496.0,Carbon Dioxide,air,232264200.0,232264618.0,kg,0.999998200328558,GHGRP,2017.0,"AIR PRODUCTS & CHEMICALS, INC, Tesoro Martinez",CA,38.026667,-122.067222,CONTRA COSTA COUNTY,325120,,1002122
110012267965.0,Carbon Dioxide,air,555967100.0,555967100.0,kg,1.0,GHGRP,2017.0,Linde Inc,LA,30.139164,-93.526936,CALCASIEU PARISH,325120,,1002608
110042061238.0,Carbon Dioxide,air,1143634100.0,1144915111.2001283,kg,0.9988811299740943,GHGRP,2017.0,Marathon El Paso Refinery,TX,31.76945,-106.41426,EL PASO COUNTY,324110,,1003564
110067124258.0,Carbon Dioxide,air,197435600.0,197435600.0,kg,1.0,GHGRP,2017.0,Air Products LLC - Corpus Christi,TX,27.810323,-97.458049,NUECES COUNTY,325120,,1004442
110071160219.0,Carbon Dioxide,air,934705400.0,934705400.0,kg,1.0,GHGRP,2017.0,"Air Products and Chemicals, Inc. - BR SMR",LA,30.488192,-91.164097,EAST BATON ROUGE PARISH,325120,,1004586
110070813729.0,Carbon Dioxide,air,474972900.0,475005978.0,kg,0.9999303629816634,GHGRP,2017.0,"IES DOWNSTREAM, LLC - KAPOLEI REFINERY",HI,21.31948,-158.116295,HONOLULU COUNTY,324110,,1004891
110004721515.0,Carbon Dioxide,air,22120400.0,22120543.0,kg,0.9999935354208981,GHGRP,2017.0,"Air Products and Chemicals, Inc.",OH,39.18291,-84.50394,HAMILTON COUNTY,325120,,1005573
110071160505.0,Carbon Dioxide,air,176811400.0,176811400.0,kg,1.0,GHGRP,2017.0,AIR PRODUCTS AND CHEMICALS INC - CATLETTSBURG HYDROGEN PLANT,KY,38.37673,-82.60581,BOYD COUNTY,325120,,1005809
110071160999.0,Carbon Dioxide,air,98269300.0,98269300.0,kg,1.0,GHGRP,2017.0,"Air Products and Chemicals, Inc. - Joliet, IL H2 Plant",IL,41.417473,-88.216903,WILL COUNTY,325120,,1005852
110071161537.0,Carbon Dioxide,air,6339205700.0,6339905528.0,kg,0.9998896153898652,GHGRP,2017.0,Los Angeles Refinery (LAR),CA,33.82431,-118.23237,LOS ANGELES COUNTY,324110,,1006627
110071162280.0,Carbon Dioxide,air,604754800.0,604795819.0,kg,0.9999321771105034,GHGRP,2017.0,REFINERY KAPOLEI,HI,21.304291,-158.091296,HONOLULU COUNTY,324110,,1006932
110059763000.0,Carbon Dioxide,air,562436400.0,562436400.0,kg,1.0,GHGRP,2017.0,Air Products LLC - Pasadena SMR,TX,29.716011,-95.200573,HARRIS COUNTY,325120,,1006943
110000468093.0,Carbon Dioxide,air,1033336500.0,1033659611.0107741,kg,0.9996874106259621,GHGRP,2017.0,SINCLAIR OIL CORPORATION,WY,41.77899,-107.104,CARBON COUNTY,324110,,1007217
110056957832.0,Carbon Dioxide,air,56859000.0,56859000.0,kg,1.0,GHGRP,2017.0,Matheson - SARALAND PLANT,AL,30.79089,-88.05873,MOBILE COUNTY,325120,,1007230
110000398338.0,Carbon Dioxide,air,4693682200.0,4698091038.888697,kg,0.9990615680172644,GHGRP,2017.0,BP Whiting Business Unit,IN,41.6703,-87.4803,Lake,324110,,1007339
110070560801.0,Carbon Dioxide,air,2170597700.0,2170704197.0,kg,0.9999509389625048,GHGRP,2017.0,Martinez Renewable Fuel Facility,CA,38.02549,-122.06812,CONTRA COSTA COUNTY,324110,,1007390
110038160584.0,Carbon Dioxide,air,37451600.0,37559973.76287843,kg,0.9971146475350965,GHGRP,2017.0,MARTIN OPERATING PTNR LP,AR,33.364143,-92.716924,UNION COUNTY,324110,,1007661
110032938365.0,Carbon Dioxide,air,26771900.0,26771900.0,kg,1.0,GHGRP,2017.0,Linde Inc.,MI,43.43094,-84.15731,SAGINAW COUNTY,325120,,1008991
110071159441.0,Carbon Dioxide,air,722822700.0,722822700.0,kg,1.0,GHGRP,2017.0,Air Products and Chemicals Inc. Luling SMR Facility,LA,29.93061,-90.34702,ST. CHARLES PARISH,325120,,1010506
110067126096.0,Carbon Dioxide,air,371991000.0,371991038.3603093,kg,0.9999998968784047,GHGRP,2017.0,Air Products and Chemicals Inc./Detroit Hydrogen Facility Marathon Refinery,MI,42.28689,-83.15642,WAYNE COUNTY,325120,,1010625
110070261635.0,Carbon Dioxide,air,35842700.0,35853215.08689374,kg,0.9997067184388275,GHGRP,2017.0,Matheson - Anacortes Hydrogen Plant,WA,48.465891,-122.565397,SKAGIT COUNTY,325120,,1010969
110060241885.0,Carbon Dioxide,air,1037400000.0,1037422243.957566,kg,0.9999785584339496,GHGRP,2017.0,Linde Facility 0379,TX,29.89028,-93.9368,JEFFERSON COUNTY,325120,,1011080
110055569567.0,Carbon Dioxide,air,1169457700.0,1169575847.1320393,kg,0.9998989829241695,GHGRP,2017.0,Air Products and Chemicals - Norco SMR,LA,30.0169,-90.40874,ST. CHARLES PARISH,325120,,1011460
110059678353.0,Carbon Dioxide,air,147615500.0,147655713.39929804,kg,0.99972765429544,GHGRP,2017.0,Marathon Petroleum Corporation,ND,47.087672,-102.9482,DUNN COUNTY,324110,,1011549
110000554374.0,Carbon Dioxide,air,30050000.0,30050000.0,kg,1.0,GHGRP,2017.0,Linde Inc,NY,43.08695,-79.01172,NIAGARA COUNTY,325120,,1011900
110002305443.0,Carbon Dioxide,air,612023400.0,612068582.2492851,kg,0.9999261810676198,GHGRP,2017.0,AIR PRODUCTS CARSON HYDROGEN PLANT,CA,33.812778,-118.231389,LOS ANGELES COUNTY,325120,,1002257
110071159424.0,Carbon Dioxide,air,72927300.0,73779693.73816246,kg,0.9884467704462487,GHGRP,2017.0,PETRO STAR VALDEZ REFINERY,AK,61.08276,-146.25017,VALDEZ-CORDOVA CENSUS AREA,324110,,1005997
110009059703.0,Carbon Dioxide,air,125343000.0,125385829.64581259,kg,0.9996584171757401,GHGRP,2017.0,Linde Decatur,AL,34.62946,-87.01574,MORGAN COUNTY,325120,,1008002
110067040703.0,Carbon Dioxide,air,1262202200.0,1263208477.025752,kg,0.9992033959207419,GHGRP,2017.0,"LINDE GAS NORTH AMERICA LLC, CLEARLAKE PLANT",TX,29.625819,-95.061592,HARRIS COUNTY,325120,,1003049
110032913024.0,Carbon Dioxide,air,944829400.0,946883514.351265,kg,0.9978306578157374,GHGRP,2017.0,SUNCOR ENERGY (USA) COMMERCE CITY REFINERY,CO,39.802789,-104.9475,ADAMS COUNTY,324110,,1007923
110002899908.0,Carbon Dioxide,air,3625752800.0,3628354049.397025,kg,0.9992830772957624,GHGRP,2017.0,"CHEVRON PRODUCTS, EL SEGUNDO REFINERY",CA,33.9082,-118.4085,LOS ANGELES COUNTY,324110,,1007978
110041133163.0,Carbon Dioxide,air,2592794500.0,2594695220.9286857,kg,0.999267458885593,GHGRP,2017.0,Phillips 66 BAYWAY REFINERY,NJ,40.6365,-74.2199,UNION COUNTY,324110,,1004305
110018885731.0,Carbon Dioxide,air,629814300.0,629851409.4205782,kg,0.9999410822615887,GHGRP,2017.0,"AIR LIQUID LARGE INDUSTRIES US, LP",CA,33.905833,-118.401944,LOS ANGELES COUNTY,325120,,1006430
110033145353.0,Carbon Dioxide,air,2402315700.0,2404469905.971534,kg,0.9991040827892319,GHGRP,2017.0,VALERO REFINING CO - CALI FORNIA BENICIA REFINERY,CA,38.07167,-122.13975,SOLANO COUNTY,324110,,1008504
110000750358.0,Carbon Dioxide,air,46574100.0,46599664.28453625,kg,0.9994514062509087,GHGRP,2017.0,AIR PRODUCTS AND CHEMICALS INCORPORATED,CA,38.529722,-121.398889,SACRAMENTO COUNTY,325120,,1002123
110043973055.0,Carbon Dioxide,air,63453500.0,63465892.774041794,kg,0.9998047333221024,GHGRP,2017.0,Air Liquide Hydrogen Plant,WA,48.467675,-122.553982,SKAGIT COUNTY,325120,,1007253
110000483487.0,Carbon Dioxide,air,1443041100.0,1444318518.017398,kg,0.9991155565746317,GHGRP,2017.0,SAN FRANCISCO REFINERY AT RODEO,CA,38.0436,-122.2532,CONTRA COSTA COUNTY,324110,,1006395
110041623641.0,Carbon Dioxide,air,836849500.0,836901518.7163593,kg,0.9999378436826843,GHGRP,2017.0,AIR LIQUIDE LARGE INDUSTRIES US LP - RODEO HYDROGEN PLANT,CA,38.047952,-122.256895,CONTRA COSTA COUNTY,325120,,1003748
110067130660.0,Carbon Dioxide,air,731480500.0,731550349.1426487,kg,0.9999045190221965,GHGRP,2017.0,La Porte Steam Methane Reformer,TX,29.651494,-95.053576,HARRIS COUNTY,325120,,1010702
110022828813.0,Carbon Dioxide,air,701382500.0,701526316.904017,kg,0.9997949942852441,GHGRP,2017.0,AIR PRODUCTS & CHEMICALS INC - CONVENT SMR,LA,30.10817,-90.88404,ST. JAMES PARISH,325120,,1002754
110056382463.0,Carbon Dioxide,air,909666100.0,909755505.3576707,kg,0.9999017259503854,GHGRP,2017.0,"Linde Inc, St. Charles Facility",LA,30.00055,-90.39502,ST. CHARLES PARISH,325120,,1010879
110066943605.0,Carbon Dioxide,air,1890310500.0,1891235131.0514026,kg,0.9995110967239232,GHGRP,2017.0,"Olin Blue Cube, Freeport, TX",TX,28.969389,-95.379528,BRAZORIA COUNTY,325199,,1011834
110000465719.0,Carbon Dioxide,air,1720149400.0,1722208180.9019105,kg,0.9988045690847709,GHGRP,2017.0,"Diamond Shamrock Refining Company, L.P.",TX,35.951944,-101.873889,MOORE COUNTY,324110,,1007936
110069359063.0,Carbon Dioxide,air,2867175300.0,2870039701.893094,kg,0.9990019643661359,GHGRP,2017.0,TORRANCE REFINING COMPANY LLC,CA,33.854967,-118.336907,LOS ANGELES COUNTY,324110,,1007329
110024422418.0,Carbon Dioxide,air,1371559000.0,1371807479.88106,kg,0.9998188667982176,GHGRP,2017.0,"LYONDELLBASELL ACETYLS LLC, LA PORTE SYNGAS PLANT",TX,29.706291,-95.057016,HARRIS COUNTY,325120,,1002072
110000481684.0,Carbon Dioxide,air,99293400.0,99437537.38077267,kg,0.9985504731455614,GHGRP,2017.0,SAN JOAQUIN REFINING CO INC,CA,35.39511,-119.04652,KERN COUNTY,324110,,1002565
110000476084.0,Carbon Dioxide,air,746995900.0,747050819.3091918,kg,0.9999264851764132,GHGRP,2017.0,AIR PRODUCTS WILMINGTON HYDROGEN PLANT,CA,33.780833,-118.241111,LOS ANGELES COUNTY,325120,,1002435
110027982565.0,Carbon Dioxide,air,214033700.0,214391219.93142825,kg,0.9983323947149393,GHGRP,2017.0,ERGON WEST VIRGINIA INC,WV,40.6111,-80.630833,HANCOCK COUNTY,324110,,1007882
110065364135.0,Carbon Dioxide,air,74748800.0,74759070.03691821,kg,0.9998626248706259,GHGRP,2017.0,LINDE ONTARIO CA,CA,34.06264,-117.52931,SAN BERNARDINO COUNTY,325120,,1006732
110000468048.0,Carbon Dioxide,air,751108500.0,752831285.0800831,kg,0.997711592073515,GHGRP,2017.0,HollyFrontier Cheyenne Refining LLC,WY,41.129889,-104.789222,LARAMIE COUNTY,324110,,1007922
110042005843.0,Carbon Dioxide,air,2130439100.0,2135033635.4169197,kg,0.9978480266817799,GHGRP,2017.0,BORGER REFINERY,TX,35.70306,-101.36305,HUTCHINSON COUNTY,324110,,1006301
110000462758.0,Carbon Dioxide,air,657651900.0,658434560.8309988,kg,0.998811330878484,GHGRP,2017.0,Air Liquide Large Industries US - SMR,TX,29.623333,-95.045833,HARRIS COUNTY,325120,,1006711
110000465103.0,Carbon Dioxide,air,3009675400.0,3013233809.2445636,kg,0.9988190729728154,GHGRP,2017.0,VALERO CORPUS CHRISTI REFINERY,TX,27.81775,-97.482552,NUECES COUNTY,324110,,1008110
110043815690.0,Carbon Dioxide,air,619385700.0,620591639.6158944,kg,0.9980567904255996,GHGRP,2017.0,United Refining Company,PA,41.8359,-79.1374,WARREN COUNTY,324110,,1007008
110043802819.0,Carbon Dioxide,air,2618394300.0,2618752020.771799,kg,0.9998634002880145,GHGRP,2017.0,Air Products Port Arthur Facility,TX,29.859444,-93.965833,JEFFERSON COUNTY,325120,,1006402
110000501993.0,Carbon Dioxide,air,1201980300.0,1203264716.777202,kg,0.998932556768853,GHGRP,2017.0,VALERO CORPUS CHRISTI REFINERY EAST PLANT,TX,27.810775,-97.436658,NUECES COUNTY,324110,,1006959
110038102969.0,Carbon Dioxide,air,914453800.0,915370305.7026702,kg,0.9989987596309816,GHGRP,2017.0,Phillips 66 Los Angeles Refinery - Carson Plant,CA,33.8048,-118.2431,LOS ANGELES COUNTY,324110,,1001964
110000490157.0,Carbon Dioxide,air,2179880800.0,2183360269.399546,kg,0.998406369554163,GHGRP,2017.0,BP CHERRY POINT REFINERY,WA,48.884,-122.735,WHATCOM COUNTY,324110,,1006468
110001148598.0,Carbon Dioxide,air,3563965200.0,3567675230.75755,kg,0.9989600985186193,GHGRP,2017.0,Delaware City Refinery,DE,39.5936,-75.6337,New Castle,324110,,1007322
110000449113.0,Carbon Dioxide,air,288390500.0,288518270.2021085,kg,0.9995571503946041,GHGRP,2017.0,AIR PRODUCTS & CHEMICALS INC - INDUSTRIAL GAS PRODUCTION FACILITY,LA,30.022255,-89.900984,ORLEANS PARISH,325120,,1003009
110006020304.0,Carbon Dioxide,air,53144000.0,53249922.38040458,kg,0.9980108444168633,GHGRP,2017.0,AIR PRODUCTS & CHEMICALS INC - Geismar SMR,LA,30.18379,-90.98836,ASCENSION PARISH,325120,,1002698
110000424611.0,Carbon Dioxide,air,3875249200.0,3878711013.017427,kg,0.9991074836444869,GHGRP,2017.0,Flint Hills Resources Pine Bend Refinery,MN,44.764434,-93.039484,DAKOTA COUNTY,324110,,1006985
110040620600.0,Carbon Dioxide,air,294754200.0,295852896.36009866,kg,0.9962863423896943,GHGRP,2017.0,ERGON REFINING INC,MS,32.388015,-90.900203,WARREN COUNTY,324110,,1008014
110000825037.0,Carbon Dioxide,air,398696500.0,398846483.46440274,kg,0.9996239569091848,GHGRP,2017.0,LINDE TEXAS CITY,TX,29.37815,-94.90251,GALVESTON COUNTY,325120,,1006562
110000476235.0,Carbon Dioxide,air,1893803300.0,1895241947.2972476,kg,0.999240916285491,GHGRP,2017.0,Phillips 66 Los Angeles Refinery - Wilmington Plant,CA,33.774469,-118.290696,LOS ANGELES COUNTY,324110,,1006843
110020506460.0,Carbon Dioxide,air,4582085300.0,4585778846.353054,kg,0.999194565094217,GHGRP,2017.0,CHEVRON PRODS.CO. RICHMOND REFY,CA,37.938779,-122.396453,CONTRA COSTA COUNTY,324110,,1003610
110000483245.0,Carbon Dioxide,air,3327243000.0,3333514199.5095005,kg,0.9981187422239199,GHGRP,2017.0,MARTINEZ REFINING COMPANY LLC,CA,38.016594,-122.115392,CONTRA COSTA COUNTY,324110,,1001804
110005184497.0,Carbon Dioxide,air,187345700.0,187543539.23557785,kg,0.9989451023672463,GHGRP,2017.0,AIR LIQUIDE - FREEPORT HYCO PLANT,TX,28.98037,-95.38396,BRAZORIA COUNTY,325120,,1003730
110000374087.0,Carbon Dioxide,air,1312413100.0,1314275754.3630772,kg,0.9985827522444254,GHGRP,2017.0,"VALERO REFINING CO. (PREV. PREMCOR REFINING, PREV. WILLIAMS REFINING LLC)",TN,35.085843,-90.083385,SHELBY COUNTY,324110,,1008271
110022294569.0,Carbon Dioxide,air,1772775500.0,1774697908.5917869,kg,0.9989167685483372,GHGRP,2017.0,Paulsboro Refining Company LLC,NJ,39.84,-75.2583,Gloucester,324110,,1007844
110000597471.0,Carbon Dioxide,air,97344300.0,97729100.53317891,kg,0.9960625798142052,GHGRP,2017.0,CALUMET LUBRICANTS CO LP CALUMET COTTON VALLEY,LA,32.800556,-93.412778,WEBSTER PARISH,324110,,1006499
110002321381.0,Carbon Dioxide,air,1778347200.0,1778425093.9303381,kg,0.9999562006122136,GHGRP,2017.0,"LINDE - WHITING, IN 1-4",IN,41.668631,-87.472829,LAKE COUNTY,325120,,1002119
110000428421.0,Carbon Dioxide,air,626903600.0,629603017.5307117,kg,0.9957125085878739,GHGRP,2017.0,ExxonMobil Fuels & Lubricants Company Billings Refinery,MT,45.813904,-108.433295,YELLOWSTONE COUNTY,324110,,1007000
110015682830.0,Carbon Dioxide,air,1984111900.0,1987682540.0536292,kg,0.9982036165324807,GHGRP,2017.0,Phillips 66 Ponca City Refinery,OK,36.6821,-97.0895,KAY COUNTY,324110,,1001920
110000540317.0,Carbon Dioxide,air,424400300.0,425948653.60300124,kg,0.9963649289887312,GHGRP,2017.0,CALUMET SHREVPORT REFINING LLC,LA,32.470833,-93.790833,CADDO PARISH,324110,,1005125
110000472630.0,Carbon Dioxide,air,611830000.0,612943938.4730549,kg,0.9981826421583841,GHGRP,2017.0,"NAVAJO REFINING COMPANY, LLC - Artesia Refinery",NM,32.848593,-104.394383,EDDY COUNTY,324110,,1007972
110000367102.0,Carbon Dioxide,air,805022900.0,805982118.9162704,kg,0.9988098756861254,GHGRP,2017.0,HUNT REFINING COMPANY,AL,33.2003,-87.607,TUSCALOOSA COUNTY,324110,,1005879
110000448659.0,Carbon Dioxide,air,2514636300.0,2517150143.4331474,kg,0.9990013136722473,GHGRP,2017.0,"Valero Refining - New Orleans, L.L.C.",LA,29.985278,-90.392778,ST. CHARLES PARISH,324110,,1009080
110001538872.0,Carbon Dioxide,air,36833700.0,36936099.044902995,kg,0.9972276702859577,GHGRP,2017.0,PRAXAIR INC,NJ,39.687732,-75.487665,SALEM COUNTY,325120,,1002021
110027373045.0,Carbon Dioxide,air,1102283900.0,1129127578.0089772,kg,0.9762261780406503,GHGRP,2017.0,Ascend Performance Materials LLC,FL,30.596678,-87.251977,ESCAMBIA COUNTY,325211,,1004962
110005191078.0,Carbon Dioxide,air,375203200.0,375278617.8295859,kg,0.9997990351008483,GHGRP,2017.0,AIR LIQUIDE - CORPUS CHRISTI SMR,TX,27.813911,-97.472347,NUECES COUNTY,325120,,1003724
110043806085.0,Carbon Dioxide,air,789667100.0,791837485.1539161,kg,0.9972590522744774,GHGRP,2017.0,PHILLIPS 66 BILLINGS REFINERY,MT,45.776389,-108.484444,YELLOWSTONE COUNTY,324110,,1007506
110012710423.0,Carbon Dioxide,air,360768800.0,360844862.1552483,kg,0.9997892109235144,GHGRP,2017.0,AIR PRODUCTS BAYTOWN PLANT,TX,29.757778,-95.023056,HARRIS COUNTY,325120,,1002430
110000597499.0,Carbon Dioxide,air,78555400.0,79334077.46358846,kg,0.9901848299181919,GHGRP,2017.0,CALUMET LUBRICANTS CO LP,LA,32.58901,-93.51512,BOSSIER PARISH,324110,,1006500
110000437974.0,Carbon Dioxide,air,74711400.0,74875379.07713653,kg,0.9978099733295828,GHGRP,2017.0,EVONIK CORPORATION,IL,40.564725,-89.724485,PEORIA COUNTY,325199,,1005465
110041962873.0,Carbon Dioxide,air,4250975600.0,4257194058.865821,kg,0.9985393057540164,GHGRP,2017.0,WRB Refining LP Wood River Refinery,IL,38.8375,-90.0675,Madison,324110,,1007518
110000453697.0,Carbon Dioxide,air,793615600.0,798107203.6031533,kg,0.9943721800995211,GHGRP,2017.0,WYNNEWOOD REFINING CO,OK,34.6289,-97.1685,GARVIN COUNTY,324110,,1002310
110013703206.0,Carbon Dioxide,air,1184597700.0,1186928462.449244,kg,0.9980363075594004,GHGRP,2017.0,"Coffeyville Resources Refining & Marketing, LLC",KS,37.047556,-95.606106,MONTGOMERY COUNTY,324110,,1004381
110000446134.0,Carbon Dioxide,air,1656674400.0,1659334375.4660707,kg,0.9983969623570755,GHGRP,2017.0,HOLLYFRONTIER EL DORADO REFINING LLC,KS,37.794007,-96.87414,BUTLER COUNTY,324110,,1004291
110016678969.0,Carbon Dioxide,air,1197170800.0,1198986361.741345,kg,0.9984857527997999,GHGRP,2017.0,CHS MCPHERSON REFINERY INC.,KS,38.3468,-97.6745,MCPHERSON COUNTY,324110,,1007942
110000606746.0,Carbon Dioxide,air,998284700.0,999784769.5067706,kg,0.9984996075630251,GHGRP,2017.0,VALERO REFINING CO -OKLAHOMA VALERO ARDMORE REFINERY,OK,34.20569,-97.10417,CARTER COUNTY,324110,,1007786
110000595348.0,Carbon Dioxide,air,1752393600.0,1754068359.272163,kg,0.9990452143650446,GHGRP,2017.0,Lemont Refinery,IL,41.6439,-88.0467,Will,324110,,1000343
110041135580.0,Carbon Dioxide,air,4924700800.0,4928819576.2740555,kg,0.9991643483373013,GHGRP,2017.0,AIR PRODUCTS AND CHEMICALS INC - GARYVILLE,LA,30.09959,-90.648851,ST. JOHN THE BAPTIST PARISH,325120,,1002727
110000377477.0,Carbon Dioxide,air,4910126600.0,4917844627.827805,kg,0.9984306076316174,GHGRP,2017.0,Chevron Pascagoula Refinery,MS,30.343733,-88.4938,JACKSON COUNTY,324110,,1003286
110000428500.0,Carbon Dioxide,air,315702100.0,316229219.8381502,kg,0.9983331083749314,GHGRP,2017.0,"Calumet Montana Refining, LLC",MT,47.523611,-111.294167,CASCADE COUNTY,324110,,1007739
110000595124.0,Carbon Dioxide,air,896243500.0,898088548.9435643,kg,0.9979455823752182,GHGRP,2017.0,CHS INC LAUREL REFINERY,MT,45.65922,-108.76778,YELLOWSTONE COUNTY,324110,,1006671
110046264760.0,Carbon Dioxide,air,611016600.0,611464633.9591496,kg,0.9992672773955075,GHGRP,2017.0,Linde Inc - GEISMAR HYCO FACILITY,LA,30.199444,-91.013333,ASCENSION PARISH,325120,,1003255
110043813816.0,Carbon Dioxide,air,864175500.0,865758394.8388094,kg,0.9981716667741881,GHGRP,2017.0,"St. Paul Park Refining Company, LLC",MN,44.850583,-93.002139,WASHINGTON COUNTY,324110,,1002027
110017413299.0,Carbon Dioxide,air,679639800.0,680665402.3732907,kg,0.9984932356342563,GHGRP,2017.0,TESORO ALASKA PETROLEUM CO,AK,60.683603,-151.367204,KENAI PENINSULA BOROUGH,324110,,1007741
110056955610.0,Carbon Dioxide,air,440288700.0,440361238.219655,kg,0.9998352756479016,GHGRP,2017.0,AIR LIQUIDE AMERICA CORP,TX,32.4478,-94.6875,HARRISON COUNTY,325120,,1003910
110022411530.0,Carbon Dioxide,air,1496999500.0,1497111912.073406,kg,0.9999249140478415,GHGRP,2017.0,Linde Inc Texas City Hydrogen Complex,TX,29.365859,-94.936113,GALVESTON COUNTY,325120,,1000043
110016734300.0,Carbon Dioxide,air,320285000.0,320300616.5557129,kg,0.9999512440660252,GHGRP,2017.0,Matheson - LEMONT PLANT,IL,41.639479,-88.102984,WILL COUNTY,325120,,1002044
110007235269.0,Carbon Dioxide,air,526909100.0,530185668.64300984,kg,0.993819959993645,GHGRP,2017.0,Ascend (Decatur Plant),AL,34.6339,-87.0244,Morgan,325199,,1000158
110017419667.0,Carbon Dioxide,air,643123400.0,644581388.8079883,kg,0.9977380842306284,GHGRP,2017.0,LION OIL CO-EL DORADO REFINERY,AR,33.200091,-92.675095,UNION COUNTY,324110,,1007861
110017619861.0,Carbon Dioxide,air,754846600.0,754850282.7166835,kg,0.9999951212620994,GHGRP,2017.0,AIR PRODUCTS & CHEMICAL INC - LAKE CHARLES FACILITY,LA,30.238889,-93.281944,CALCASIEU PARISH,325120,,1003013
110000483227.0,Carbon Dioxide,air,776437600.0,776455331.4637684,kg,0.9999771635752247,GHGRP,2017.0,AIR PRODUCTS & CHEMICALS INC MARTINEZ WATERFRONT ROAD,CA,38.032767,-122.07594,CONTRA COSTA COUNTY,325120,,1002121
110000490870.0,Carbon Dioxide,air,46988900.0,46988911.7934024,kg,0.9999997490173329,GHGRP,2017.0,SOLVAY CHEMICALS INC,WA,46.136952,-122.982513,COWLITZ COUNTY,325188,,1005156
110043795220.0,Carbon Dioxide,air,539884600.0,539884600.0,kg,1.0,GHGRP,2017.0,LINDE INC,OH,41.636578,-83.495172,LUCAS COUNTY,325120,,1005941
110070209475.0,Carbon Dioxide,air,202144700.0,202144700.0,kg,1.0,GHGRP,2017.0,Matheson - LIMA II PLANT,OH,40.72211,-84.11329,ALLEN COUNTY,325120,,1002043
110071160496.0,Methane,air,380.0,232264618.0,kg,1.6360649472663115e-06,GHGRP,2017.0,"AIR PRODUCTS & CHEMICALS, INC, Tesoro Martinez",CA,38.026667,-122.067222,CONTRA COSTA COUNTY,325120,,1002122
110042061238.0,Methane,air,123250.0,1144915111.2001283,kg,0.0001076499024201072,GHGRP,2017.0,Marathon El Paso Refinery,TX,31.76945,-106.41426,EL PASO COUNTY,324110,,1003564
110070813729.0,Methane,air,30430.0,475005978.0,kg,6.406235165318277e-05,GHGRP,2017.0,"IES DOWNSTREAM, LLC - KAPOLEI REFINERY",HI,21.31948,-158.116295,HONOLULU COUNTY,324110,,1004891
110004721515.0,Methane,air,130.0,22120543.0,kg,5.8768900926166235e-06,GHGRP,2017.0,"Air Products and Chemicals, Inc.",OH,39.18291,-84.50394,HAMILTON COUNTY,325120,,1005573
110071161537.0,Methane,air,664240.0,6339905528.0,kg,0.00010477127727951217,GHGRP,2017.0,Los Angeles Refinery (LAR),CA,33.82431,-118.23237,LOS ANGELES COUNTY,324110,,1006627
110071162280.0,Methane,air,36460.0,604795819.0,kg,6.028480828502553e-05,GHGRP,2017.0,REFINERY KAPOLEI,HI,21.304291,-158.091296,HONOLULU COUNTY,324110,,1006932
110000468093.0,Methane,air,241280.0,1033659611.0107741,kg,0.00023342307025429968,GHGRP,2017.0,SINCLAIR OIL CORPORATION,WY,41.77899,-107.104,CARBON COUNTY,324110,,1007217
110000398338.0,Methane,air,706640.0,4698091038.888697,kg,0.00015041002699835957,GHGRP,2017.0,BP Whiting Business Unit,IN,41.6703,-87.4803,Lake,324110,,1007339
110070560801.0,Methane,air,93500.0,2170704197.0,kg,4.307357959192263e-05,GHGRP,2017.0,Martinez Renewable Fuel Facility,CA,38.02549,-122.06812,CONTRA COSTA COUNTY,324110,,1007390
110038160584.0,Methane,air,12280.0,37559973.76287843,kg,0.00032694378535846224,GHGRP,2017.0,MARTIN OPERATING PTNR LP,AR,33.364143,-92.716924,UNION COUNTY,324110,,1007661
110060241885.0,Methane,air,340.0,1037422243.957566,kg,3.2773540569456607e-07,GHGRP,2017.0,Linde Facility 0379,TX,29.89028,-93.9368,JEFFERSON COUNTY,325120,,1011080
110059678353.0,Methane,air,31390.0,147655713.39929804,kg,0.00021258913236302327,GHGRP,2017.0,Marathon Petroleum Corporation,ND,47.087672,-102.9482,DUNN COUNTY,324110,,1011549
110071159424.0,Methane,air,35250.0,73779693.73816246,kg,0.00047777373710846646,GHGRP,2017.0,PETRO STAR VALDEZ REFINERY,AK,61.08276,-146.25017,VALDEZ-CORDOVA CENSUS AREA,324110,,1005997
110009059703.0,Methane,air,50.0,125385829.64581259,kg,3.9876914433823194e-07,GHGRP,2017.0,Linde Decatur,AL,34.62946,-87.01574,MORGAN COUNTY,325120,,1008002
110067040703.0,Methane,air,8700.0,1263208477.025752,kg,6.8872242058447175e-06,GHGRP,2017.0,ARKEMA INC CLEAR LAKE,TX,29.625819,-95.061592,HARRIS COUNTY,325110,,1006797
110032913024.0,Methane,air,238470.0,946883514.351265,kg,0.00025184724032647473,GHGRP,2017.0,SUNCOR ENERGY (USA) COMMERCE CITY REFINERY,CO,39.802789,-104.9475,ADAMS COUNTY,324110,,1007923
110002899908.0,Methane,air,211580.0,3628354049.397025,kg,5.83129422100253e-05,GHGRP,2017.0,"CHEVRON PRODUCTS, EL SEGUNDO REFINERY",CA,33.9082,-118.4085,LOS ANGELES COUNTY,324110,,1007978
110041133163.0,Methane,air,130960.0,2594695220.9286857,kg,5.0472209199632776e-05,GHGRP,2017.0,Phillips 66 BAYWAY REFINERY,NJ,40.6365,-74.2199,UNION COUNTY,324110,,1004305
110033145353.0,Methane,air,225480.0,2404469905.971534,kg,9.377534709002486e-05,GHGRP,2017.0,VALERO REFINING CO - CALI FORNIA BENICIA REFINERY,CA,38.07167,-122.13975,SOLANO COUNTY,324110,,1008504
110000483487.0,Methane,air,124180.0,1444318518.017398,kg,8.597826480163161e-05,GHGRP,2017.0,SAN FRANCISCO REFINERY AT RODEO,CA,38.0436,-122.2532,CONTRA COSTA COUNTY,324110,,1006395
110056382463.0,Methane,air,990.0,909755505.3576707,kg,1.088204461714998e-06,GHGRP,2017.0,"Linde Inc, St. Charles Facility",LA,30.00055,-90.39502,ST. CHARLES PARISH,325120,,1010879
110066943605.0,Methane,air,35170.0,1891235131.0514026,kg,1.8596312760141986e-05,GHGRP,2017.0,"Olin Blue Cube, Freeport, TX",TX,28.969389,-95.379528,BRAZORIA COUNTY,325199,,1011834
110000465719.0,Methane,air,372580.0,1722208180.9019105,kg,0.0002163385380069917,GHGRP,2017.0,"Diamond Shamrock Refining Company, L.P.",TX,35.951944,-101.873889,MOORE COUNTY,324110,,1007936
110069359063.0,Methane,air,162870.0,2870039701.893094,kg,5.6748343896626256e-05,GHGRP,2017.0,TORRANCE REFINING COMPANY LLC,CA,33.854967,-118.336907,LOS ANGELES COUNTY,324110,,1007329
110000481684.0,Methane,air,20600.0,99437537.38077267,kg,0.000207165226961697,GHGRP,2017.0,SAN JOAQUIN REFINING CO INC,CA,35.39511,-119.04652,KERN COUNTY,324110,,1002565
110000476084.0,Methane,air,7510.0,747050819.3091918,kg,1.0052863615014304e-05,GHGRP,2017.0,AIR PRODUCTS WILMINGTON HYDROGEN PLANT,CA,33.780833,-118.241111,LOS ANGELES COUNTY,325120,,1002435
110027982565.0,Methane,air,29060.0,214391219.93142825,kg,0.00013554659565487181,GHGRP,2017.0,ERGON WEST VIRGINIA INC,WV,40.6111,-80.630833,HANCOCK COUNTY,324110,,1007882
110000468048.0,Methane,air,254870.0,752831285.0800831,kg,0.0003385486297542589,GHGRP,2017.0,HollyFrontier Cheyenne Refining LLC,WY,41.129889,-104.789222,LARAMIE COUNTY,324110,,1007922
110042005843.0,Methane,air,1539090.0,2135033635.4169197,kg,0.0007208738890427146,GHGRP,2017.0,BORGER REFINERY,TX,35.70306,-101.36305,HUTCHINSON COUNTY,324110,,1006301
110000462758.0,Methane,air,98180.01684047274,658434560.8309988,kg,0.0001491112749558004,NEI,2017.0,AIR LIQUIDE BAYPORT COMPL,TX,29.621583,-95.045069,Harris,325120,,4925011
110000465103.0,Methane,air,486790.0,3013233809.2445636,kg,0.00016155068966322307,GHGRP,2017.0,VALERO CORPUS CHRISTI REFINERY,TX,27.81775,-97.482552,NUECES COUNTY,324110,,1008110
110043815690.0,Methane,air,40590.0,620591639.6158944,kg,6.540532841390282e-05,GHGRP,2017.0,United Refining Company,PA,41.8359,-79.1374,WARREN COUNTY,324110,,1007008
110043802819.0,Methane,air,19990.0,2618752020.771799,kg,7.633406997470705e-06,GHGRP,2017.0,Air Products Port Arthur Facility,TX,29.859444,-93.965833,JEFFERSON COUNTY,325120,,1006402
110000501993.0,Methane,air,389200.0,1203264716.777202,kg,0.0003234533470261015,GHGRP,2017.0,VALERO CORPUS CHRISTI REFINERY EAST PLANT,TX,27.810775,-97.436658,NUECES COUNTY,324110,,1006959
110038102969.0,Methane,air,62720.0,915370305.7026702,kg,6.85187181725913e-05,GHGRP,2017.0,Phillips 66 Los Angeles Refinery - Carson Plant,CA,33.8048,-118.2431,LOS ANGELES COUNTY,324110,,1001964
110000490157.0,Methane,air,239200.0,2183360269.399546,kg,0.0001095559003030605,GHGRP,2017.0,BP CHERRY POINT REFINERY,WA,48.884,-122.735,WHATCOM COUNTY,324110,,1006468
110001148598.0,Methane,air,160220.0,3567675230.75755,kg,4.490879624319934e-05,GHGRP,2017.0,Delaware City Refinery,DE,39.5936,-75.6337,New Castle,324110,,1007322
110000449113.0,Methane,air,50.0,288518270.2021085,kg,1.732992505638369e-07,GHGRP,2017.0,AIR PRODUCTS & CHEMICALS INC - INDUSTRIAL GAS PRODUCTION FACILITY,LA,30.022255,-89.900984,ORLEANS PARISH,325120,,1003009
110000424611.0,Methane,air,444590.0,3878711013.017427,kg,0.00011462313085659173,GHGRP,2017.0,Flint Hills Resources Pine Bend Refinery,MN,44.764434,-93.039484,DAKOTA COUNTY,324110,,1006985
110040620600.0,Methane,air,72040.0,295852896.36009866,kg,0.00024349939069826174,GHGRP,2017.0,ERGON REFINING INC,MS,32.388015,-90.900203,WARREN COUNTY,324110,,1008014
110000825037.0,Methane,air,460.0,398846483.46440274,kg,1.1533259513896536e-06,GHGRP,2017.0,LINDE TEXAS CITY,TX,29.37815,-94.90251,GALVESTON COUNTY,325120,,1006562
110000476235.0,Methane,air,107200.0,1895241947.2972476,kg,5.65626991070322e-05,GHGRP,2017.0,Phillips 66 Los Angeles Refinery - Wilmington Plant,CA,33.774469,-118.290696,LOS ANGELES COUNTY,324110,,1006843
110020506460.0,Methane,air,190500.0,4585778846.353054,kg,4.1541471227183035e-05,GHGRP,2017.0,CHEVRON PRODS.CO. RICHMOND REFY,CA,37.938779,-122.396453,CONTRA COSTA COUNTY,324110,,1003610
110000483245.0,Methane,air,1654560.0,3333514199.5095005,kg,0.000496341068606654,GHGRP,2017.0,MARTINEZ REFINING COMPANY LLC,CA,38.016594,-122.115392,CONTRA COSTA COUNTY,324110,,1001804
110005184497.0,Methane,air,50.0,187543539.23557785,kg,2.666047585739215e-07,GHGRP,2017.0,AIR LIQUIDE - FREEPORT HYCO PLANT,TX,28.98037,-95.38396,BRAZORIA COUNTY,325120,,1003730
110000374087.0,Methane,air,310880.0,1314275754.3630772,kg,0.00023654092298967984,GHGRP,2017.0,"VALERO REFINING CO. (PREV. PREMCOR REFINING, PREV. WILLIAMS REFINING LLC)",TN,35.085843,-90.083385,SHELBY COUNTY,324110,,1008271
110022294569.0,Methane,air,374890.0,1774697908.5917869,kg,0.0002112415855031199,GHGRP,2017.0,Paulsboro Refining Company LLC,NJ,39.84,-75.2583,Gloucester,324110,,1007844
110000597471.0,Methane,air,69150.0,97729100.53317891,kg,0.0007075681616093833,GHGRP,2017.0,CALUMET LUBRICANTS CO LP CALUMET COTTON VALLEY,LA,32.800556,-93.412778,WEBSTER PARISH,324110,,1006499
110002321381.0,Methane,air,110.0,1778425093.9303381,kg,6.185247856399667e-08,GHGRP,2017.0,"LINDE - WHITING, IN 1-4",IN,41.668631,-87.472829,LAKE COUNTY,325120,,1002119
110000428421.0,Methane,air,895650.0,629603017.5307117,kg,0.0014225630676179388,GHGRP,2017.0,ExxonMobil Fuels & Lubricants Company Billings Refinery,MT,45.813904,-108.433295,YELLOWSTONE COUNTY,324110,,1007000
110015682830.0,Methane,air,227850.0,1987682540.0536292,kg,0.0001146309812601425,GHGRP,2017.0,Phillips 66 Ponca City Refinery,OK,36.6821,-97.0895,KAY COUNTY,324110,,1001920
110000540317.0,Methane,air,35900.0,425948653.60300124,kg,8.428245915635651e-05,GHGRP,2017.0,CALUMET SHREVPORT REFINING LLC,LA,32.470833,-93.790833,CADDO PARISH,324110,,1005125
110000472630.0,Methane,air,211440.0,612943938.4730549,kg,0.00034495813846651644,GHGRP,2017.0,"NAVAJO REFINING COMPANY, LLC - Artesia Refinery",NM,32.848593,-104.394383,EDDY COUNTY,324110,,1007972
110000367102.0,Methane,air,83220.0,805982118.9162704,kg,0.00010325291100985992,GHGRP,2017.0,HUNT REFINING COMPANY,AL,33.2003,-87.607,TUSCALOOSA COUNTY,324110,,1005879
110000448659.0,Methane,air,587970.0,2517150143.4331474,kg,0.00023358558945477375,GHGRP,2017.0,"Valero Refining - New Orleans, L.L.C.",LA,29.985278,-90.392778,ST. CHARLES PARISH,324110,,1009080
110001538872.0,Methane,air,10.0,36936099.044902995,kg,2.707378488411313e-07,GHGRP,2017.0,PRAXAIR INC,NJ,39.687732,-75.487665,SALEM COUNTY,325120,,1002021
110027373045.0,Methane,air,39020.0,1129127578.0089772,kg,3.455765385591332e-05,GHGRP,2017.0,Ascend Performance Materials LLC,FL,30.596678,-87.251977,ESCAMBIA COUNTY,325211,,1004962
110043806085.0,Methane,air,467130.0,791837485.1539161,kg,0.000589931657389521,GHGRP,2017.0,PHILLIPS 66 BILLINGS REFINERY,MT,45.776389,-108.484444,YELLOWSTONE COUNTY,324110,,1007506
110012710423.0,Methane,air,3480.0,360844862.1552483,kg,9.64403366924698e-06,GHGRP,2017.0,AIR PRODUCTS BAYTOWN PLANT,TX,29.757778,-95.023056,HARRIS COUNTY,325120,,1002430
110000597499.0,Methane,air,174400.0,79334077.46358846,kg,0.002198298708143968,GHGRP,2017.0,CALUMET LUBRICANTS CO LP,LA,32.58901,-93.51512,BOSSIER PARISH,324110,,1006500
110000437974.0,Methane,air,1160.0,74875379.07713653,kg,1.5492409044166164e-05,GHGRP,2017.0,EVONIK CORPORATION,IL,40.564725,-89.724485,PEORIA COUNTY,325199,,1005465
110041962873.0,Methane,air,640640.0,4257194058.865821,kg,0.000150484096130369,GHGRP,2017.0,WRB Refining LP Wood River Refinery,IL,38.8375,-90.0675,Madison,324110,,1007518
110000453697.0,Methane,air,638500.0,798107203.6031533,kg,0.0008000178386029008,GHGRP,2017.0,WYNNEWOOD REFINING CO,OK,34.6289,-97.1685,GARVIN COUNTY,324110,,1002310
110013703206.0,Methane,air,328900.0,1186928462.449244,kg,0.0002771017886969448,GHGRP,2017.0,"Coffeyville Resources Refining & Marketing, LLC",KS,37.047556,-95.606106,MONTGOMERY COUNTY,324110,,1004381
110000446134.0,Methane,air,131390.0,1659334375.4660707,kg,7.918235284138884e-05,GHGRP,2017.0,HOLLYFRONTIER EL DORADO REFINING LLC,KS,37.794007,-96.87414,BUTLER COUNTY,324110,,1004291
110016678969.0,Methane,air,205620.0,1198986361.741345,kg,0.00017149486146061604,GHGRP,2017.0,CHS MCPHERSON REFINERY INC.,KS,38.3468,-97.6745,MCPHERSON COUNTY,324110,,1007942
110000606746.0,Methane,air,222240.0,999784769.5067706,kg,0.00022228784312211406,GHGRP,2017.0,VALERO REFINING CO -OKLAHOMA VALERO ARDMORE REFINERY,OK,34.20569,-97.10417,CARTER COUNTY,324110,,1007786
110000595348.0,Methane,air,136950.0,1754068359.272163,kg,7.80756344392566e-05,GHGRP,2017.0,Lemont Refinery,IL,41.6439,-88.0467,Will,324110,,1000343
110041135580.0,Methane,air,561790.0,4928819576.2740555,kg,0.00011398063802219466,GHGRP,2017.0,Garyville Refinery,LA,30.06132,-90.59353,ST. JOHN THE BAPTIST PARISH,324110,,1003043
110000377477.0,Methane,air,1310630.0,4917844627.827805,kg,0.0002665049628822659,GHGRP,2017.0,Chevron Pascagoula Refinery,MS,30.343733,-88.4938,JACKSON COUNTY,324110,,1003286
110000428500.0,Methane,air,81420.0,316229219.8381502,kg,0.0002574714633950389,GHGRP,2017.0,"Calumet Montana Refining, LLC",MT,47.523611,-111.294167,CASCADE COUNTY,324110,,1007739
110000595124.0,Methane,air,150070.0,898088548.9435643,kg,0.00016709933577989576,GHGRP,2017.0,CHS INC LAUREL REFINERY,MT,45.65922,-108.76778,YELLOWSTONE COUNTY,324110,,1006671
110046264760.0,Methane,air,20.0,611464633.9591496,kg,3.2708351209951006e-08,GHGRP,2017.0,Linde Inc - GEISMAR HYCO FACILITY,LA,30.199444,-91.013333,ASCENSION PARISH,325120,,1003255
110043813816.0,Methane,air,110120.0,865758394.8388094,kg,0.00012719483941071413,GHGRP,2017.0,"St. Paul Park Refining Company, LLC",MN,44.850583,-93.002139,WASHINGTON COUNTY,324110,,1002027
110017413299.0,Methane,air,122490.0,680665402.3732907,kg,0.00017995625982004004,GHGRP,2017.0,TESORO ALASKA PETROLEUM CO,AK,60.683603,-151.367204,KENAI PENINSULA BOROUGH,324110,,1007741
110007235269.0,Methane,air,207594.0,530185668.64300984,kg,0.0003915496254950251,GHGRP,2017.0,Ascend (Decatur Plant),AL,34.6339,-87.0244,Morgan,325199,,1000158
110017419667.0,Methane,air,59450.0,644581388.8079883,kg,9.223040105135477e-05,GHGRP,2017.0,LION OIL CO-EL DORADO REFINERY,AR,33.200091,-92.675095,UNION COUNTY,324110,,1007861
110011942862.0,Nitrogen Oxides,air,54494.5873318,95849323.8444681,kg,0.000568544306272069,NEI,2017.0,"Matheson Tri-Gas, Inc. (0302020242)",OH,40.715,-84.12361,Allen,325120,,16535711
110042061238.0,Nitrogen Oxides,air,382448.493290402,1144915111.2001283,kg,0.00033404091670124786,NEI,2017.0,MARATHON EL PASO REFINERY,TX,31.766622,-106.401514,El Paso,324110,,6476111
110000398338.0,Nitrogen Oxides,air,1306311.298568153,4698091038.888697,kg,0.00027805150810299167,NEI,2017.0,BP Products North America Inc Whiting R,IN,41.663055,-87.479643,Lake,32411,,7247711
110038160584.0,Nitrogen Oxides,air,12114.907891856,37559973.76287843,kg,0.00032254835874857563,NEI,2017.0,Martin Operating Partnership L.P.,AR,33.363731,-92.714928,Union,324191,,17077411
110070261635.0,Nitrogen Oxides,air,5080.234544,35853215.08689374,kg,0.00014169536906767104,NEI,2017.0,Matheson Gas Anacortes,WA,48.4676,-122.555,Skagit,325120,,16856811
110055569567.0,Nitrogen Oxides,air,45758.39828560001,1169575847.1320393,kg,3.912392547931448e-05,NEI,2017.0,Air Products & Chemicals Inc - Norco Hydrogen Plant,LA,29.99634,-90.38633,St. Charles,325120,,16965911
110002305443.0,Nitrogen Oxides,air,17363.515923600004,612068582.2492851,kg,2.8368578991247975e-05,NEI,2017.0,AIR PROD & CHEM INC,CA,33.8124,-118.2312,Los Angeles,325120,,10204011
110071159424.0,Nitrogen Oxides,air,70140.80254258,73779693.73816246,kg,0.0009506789604129212,NEI,2017.0,Petro Star Valdez Refinery,AK,61.0849,-146.2538,Chugach Census Area,324110,,1025911
110009059703.0,Nitrogen Oxides,air,23995.036373000003,125385829.64581259,kg,0.00019136960245651926,NEI,2017.0,Linde Gas North America LLC,AL,34.62971,-87.01083,Morgan,325120,,10552711
110067040703.0,Nitrogen Oxides,air,195386.72774698003,1263208477.025752,kg,0.00015467496561376925,NEI,2017.0,CLEAR LAKE PLANT,TX,29.625769,-95.063564,Harris,325120,,10679911
110032913024.0,Nitrogen Oxides,air,538286.1829680535,946883514.351265,kg,0.0005684819460996189,NEI,2017.0,SUNCOR ENERGY - DENVER REFINERY,CO,39.80311,-104.94954,Adams,324110,,1099511
110002899908.0,Nitrogen Oxides,air,661715.18387516,3628354049.397025,kg,0.00018237337780890663,NEI,2017.0,CHEVRON REFINERY,CA,33.9142,-118.427,Los Angeles,48811,,11161011
110041133163.0,Nitrogen Oxides,air,814039.5711294223,2594695220.9286857,kg,0.0003137322505408029,NEI,2017.0,BAYWAY REFINERY,NJ,40.6362,-74.2343,Union,48811,,12323111
110018885731.0,Nitrogen Oxides,air,18452.23014444348,629851409.4205782,kg,2.9296163933995666e-05,NEI,2017.0,"AIR LIQUIDE LARGE INDUSTRIES U.S., LP",CA,33.91607,-118.41869,Los Angeles,325120,,13490211
110033145353.0,Nitrogen Oxides,air,919041.9086877088,2404469905.971534,kg,0.00038222225464550655,NEI,2017.0,VALERO REFINING COMPANY - CALIFORNIA,CA,38.07167,-122.13975,Solano,324110,,14217311
110000750358.0,Nitrogen Oxides,air,8916.537372511999,46599664.28453625,kg,0.00019134338217691592,NEI,2017.0,AIR PRODUCTS MFG CORP,CA,38.52979,-121.3988,Sacramento,325120,,1469911
110043973055.0,Nitrogen Oxides,air,9507.2960752,63465892.774041794,kg,0.00014980165975209573,NEI,2017.0,Air Liquide,WA,48.4678,-122.554,Skagit,325120,,15622111
110000483487.0,Nitrogen Oxides,air,197580.30129561052,1444318518.017398,kg,0.0001367982884875194,NEI,2017.0,PHILLIPS 66 COMPANY - SAN FRANCISCO REFINERY,CA,38.043508,-122.253603,Contra Costa,324110,,15733011
110041623641.0,Nitrogen Oxides,air,11159.953996737886,836901518.7163593,kg,1.3334847347218392e-05,NEI,2017.0,AIR LIQUIDE LARGE INDUSTRIES US LP,CA,38.049713,-122.254898,Contra Costa,325120,,15748611
110067130660.0,Nitrogen Oxides,air,15950.122098680002,731550349.1426487,kg,2.1803177481048275e-05,NEI,2017.0,LA PORTE SMR,TX,29.646294,-95.05535,Harris,325120,,16636311
110022828813.0,Nitrogen Oxides,air,65970.4742928,701526316.904017,kg,9.403848822655944e-05,NEI,2017.0,Air Products & Chemicals Inc - SMR Facility,LA,30.10894,-90.88534,St. James,325120,,16859811
110056382463.0,Nitrogen Oxides,air,28104.583245200003,909755505.3576707,kg,3.0892457456633556e-05,NEI,2017.0,Praxair Inc - St Charles Plant,LA,29.99324,-90.38778,St. Charles,325120,,16862611
110066943605.0,Nitrogen Oxides,air,435149.576391222,1891235131.0514026,kg,0.00023008750696657554,NEI,2017.0,BLUE CUBE OPERATIONS FREEPORT,TX,28.989642,-95.411392,Brazoria,325110,,17735411
110000465719.0,Nitrogen Oxides,air,598898.7806415461,1722208180.9019105,kg,0.0003477505143007196,NEI,2017.0,VALERO PARTNERS MCKEE,TX,35.959308,-101.889197,Moore,424710,,17906111
110069359063.0,Nitrogen Oxides,air,837804.4394968094,2870039701.893094,kg,0.00029191388500451367,NEI,2017.0,TORRANCE REFINING COMPANY LLC,CA,33.85726,-118.33718,Los Angeles,324110,,17922111
110024422418.0,Nitrogen Oxides,air,33765.053148904,1371807479.88106,kg,2.461355084011609e-05,NEI,2017.0,LYONDELLBASELL SYNGAS,TX,29.705753,-95.056728,Harris,325120,,4167411
110000481684.0,Nitrogen Oxides,air,17122.043848187124,99437537.38077267,kg,0.00017218893688630162,NEI,2017.0,SAN JOAQUIN REFINING COMPANY,CA,35.3972,-119.0467,Kern,326211,,4195511
110000476084.0,Nitrogen Oxides,air,20511.4469714,747050819.3091918,kg,2.74565617776408e-05,NEI,2017.0,"AIR PRODUCTS AND CHEMICALS, INC.",CA,33.77901,-118.24143,Los Angeles,325120,,4197911
110027982565.0,Nitrogen Oxides,air,92648.60025282402,214391219.93142825,kg,0.00043214736257602863,NEI,2017.0,"ERGON - WEST VIRGINIA, INC.",WV,40.611,-80.631,Hancock,32411,,4781911
110065364135.0,Nitrogen Oxides,air,2357.5826304646,74759070.03691821,kg,3.1535740470023996e-05,NEI,2017.0,PRAXAIR INC,CA,34.062648,-117.529208,San Bernardino,325120,,4785511
110000468048.0,Nitrogen Oxides,air,275987.3140963061,752831285.0800831,kg,0.0003665991564988531,NEI,2017.0,HollyFrontier Cheyenne Refinery,WY,41.1275,-104.7892,Laramie,324110,,4787811
110042005843.0,Nitrogen Oxides,air,896797.111853104,2135033635.4169197,kg,0.00042003886822981196,NEI,2017.0,BORGER REFINERY,TX,35.698569,-101.363897,Hutchinson,324110,,4861611
110000462758.0,Nitrogen Oxides,air,288763.797346024,658434560.8309988,kg,0.0004385611183313043,NEI,2017.0,AIR LIQUIDE BAYPORT COMPL,TX,29.621583,-95.045069,Harris,325120,,4925011
110000465103.0,Nitrogen Oxides,air,709829.6028041681,3013233809.2445636,kg,0.00023557070169145846,NEI,2017.0,CORPUS CHRISTI WEST PLANT,TX,27.817361,-97.489161,Nueces,324110,,4929811
110043815690.0,Nitrogen Oxides,air,262260.939477768,620591639.6158944,kg,0.00042259824776255504,NEI,2017.0,UNITED REFINING CO/WARREN PLT,PA,41.82992,-79.12443,Warren,324110,,4966711
110043802819.0,Nitrogen Oxides,air,138245.519654704,2618752020.771799,kg,5.2790611160639886e-05,NEI,2017.0,AIR PRODUCTS PORT ARTHUR FACILITY,TX,29.865286,-93.970633,Jefferson,325120,,5611511
110000501993.0,Nitrogen Oxides,air,304730.61164392,1203264716.777202,kg,0.00025325317645821436,NEI,2017.0,VALERO CORPUS CHRISTI REFINING EAST,TX,27.812092,-97.447489,Nueces,324110,,5656011
110038102969.0,Nitrogen Oxides,air,355035.8198464,915370305.7026702,kg,0.0003878603201726782,NEI,2017.0,PHILLIPS 66 COMPANY/LOS ANGELES REFINERY,CA,33.804002,-118.243606,Los Angeles,324110,,5682211
110000490157.0,Nitrogen Oxides,air,1739980.33132,2183360269.399546,kg,0.0007969277245291811,NEI,2017.0,BP CHERRY POINT REFINERY,WA,48.861,-122.757,Whatcom,324110,,5763011
110001148598.0,Nitrogen Oxides,air,1320498.8550642258,3567675230.75755,kg,0.0003701286607256107,NEI,2017.0,Delaware City Refinery,DE,39.588611,-75.635555,New Castle,32411,,588311
110000449113.0,Nitrogen Oxides,air,39731.97005778,288518270.2021085,kg,0.00013771041268876164,NEI,2017.0,Air Products & Chemicals Inc - New Orleans Facility,LA,30.0297,-89.90054,Orleans,325120,,6051911
110006020304.0,Nitrogen Oxides,air,49895.1607,53249922.38040458,kg,0.0009369996888175917,NEI,2017.0,Air Products & Chemicals Inc - Geismar 1 SMR Facility,LA,30.1825,-90.98694,Ascension,325120,,6116311
110000424611.0,Nitrogen Oxides,air,1200282.759405302,3878711013.017427,kg,0.0003094540313462402,NEI,2017.0,Flint Hills Resources Pine Bend Refinery,MN,44.76443,-93.03948,Dakota,324110,,6275811
110040620600.0,Nitrogen Oxides,air,129945.1421576,295852896.36009866,kg,0.00043922213963873684,NEI,2017.0,ERGON REFINING INC,MS,32.388369,-90.906375,Warren,32411,,6284911
110000825037.0,Nitrogen Oxides,air,13445.83862391,398846483.46440274,kg,3.371181439815815e-05,NEI,2017.0,TEXAS CITY,TX,29.378033,-94.900975,Galveston,325120,,6420711
110000476235.0,Nitrogen Oxides,air,427199.6171436378,1895241947.2972476,kg,0.00022540637502924384,NEI,2017.0,PHILLIPS 66 CO/LA REFINERY WILMINGTON PL,CA,33.776935,-118.288725,Los Angeles,324110,,6500611
110020506460.0,Nitrogen Oxides,air,668771.9248120526,4585778846.353054,kg,0.00014583606127101156,NEI,2017.0,CHEVRON PRODUCTS COMPANY,CA,37.938779,-122.396453,Contra Costa,324110,,6530111
110000483245.0,Nitrogen Oxides,air,831430.9258066446,3333514199.5095005,kg,0.0002494157444803994,NEI,2017.0,SHELL MARTINEZ REFINERY,CA,38.016594,-122.115392,Contra Costa,324110,,6531011
110005184497.0,Nitrogen Oxides,air,13436.494621088,187543539.23557785,kg,7.164466809069921e-05,NEI,2017.0,FREEPORT HYCO PLANT,TX,28.981494,-95.385706,Brazoria,325120,,6598211
110000374087.0,Nitrogen Oxides,air,328592.41211593227,1314275754.3630772,kg,0.00025001786042623477,NEI,2017.0,"Valero Refining Co. (Prev. Premcor Refining, Prev. Williams Refining Llc)",TN,35.0875,-90.0864,Shelby,32411,,7156111
110022294569.0,Nitrogen Oxides,air,629115.3806799401,1774697908.5917869,kg,0.00035449153212736904,NEI,2017.0,Paulsboro Refining Company LLC,NJ,39.8401,-75.2574,Gloucester,324110,,7201311
110000597471.0,Nitrogen Oxides,air,58670.35869002,97729100.53317891,kg,0.0006003366281888728,NEI,2017.0,Calumet Cotton Valley Refining LLC - Cotton Valley Refinery,LA,32.79892,-93.41176,Webster,324110,,7205811
110002321381.0,Nitrogen Oxides,air,57557.92113463316,1778425093.9303381,kg,3.2364546210619165e-05,NEI,2017.0,PRAXAIR INC,IN,41.6677,-87.4686,Lake,32512,,7250911
110000428421.0,Nitrogen Oxides,air,373246.918472582,629603017.5307117,kg,0.0005928289860116105,NEI,2017.0,EXXONMOBIL BILLINGS REFINERY,MT,45.813904,-108.433295,Yellowstone,324110,,7284611
110015682830.0,Nitrogen Oxides,air,739119.6950676001,1987682540.0536292,kg,0.0003718499710963191,NEI,2017.0,PONCA CITY PIPELINE ACTIVITIES,OK,36.68016,-97.09693,Kay,486110,,10722511
110000540317.0,Nitrogen Oxides,air,304986.4377406,425948653.60300124,kg,0.0007160169075797992,NEI,2017.0,Calumet Shreveport Refining LLC - Calumet Shreveport Refinery,LA,32.46908,-93.79286,Caddo,324110,,7381811
110000472630.0,Nitrogen Oxides,air,155636.6139944,612943938.4730549,kg,0.0002539165561896519,NEI,2017.0,HollyFrontier - Artesia Refinery,NM,32.848593,-104.394383,Eddy,32411,,7399911
110000367102.0,Nitrogen Oxides,air,208031.97583784003,805982118.9162704,kg,0.00025810991454445836,NEI,2017.0,Hunt Refining Company,AL,33.201,-87.607,Tuscaloosa,324110,,7441411
110000448659.0,Nitrogen Oxides,air,516184.6507071085,2517150143.4331474,kg,0.00020506708829179452,NEI,2017.0,Valero Partners LA LLC - St Charles Terminal,LA,29.99329,-90.39859,St. Charles,324110,,17652411
110001538872.0,Nitrogen Oxides,air,34949.74570087,36936099.044902995,kg,0.0009462218968598119,NEI,2017.0,PRAXAIR INC,NJ,39.68935,-75.48763,Salem,325120,,7479711
110027373045.0,Nitrogen Oxides,air,1279455.297267418,1129127578.0089772,kg,0.0011331361683004128,NEI,2017.0,ASCEND PERFORMANCE MATERIALS OPERATIONS,FL,30.59903,-87.25021,Escambia,325220,,751411
110005191078.0,Nitrogen Oxides,air,50469.590077368,375278617.8295859,kg,0.000134485653270782,NEI,2017.0,HYDROGEN PLANT INDUST GAS,TX,27.815667,-97.477658,Nueces,325120,,7680711
110043806085.0,Nitrogen Oxides,air,518994.40233471605,791837485.1539161,kg,0.0006554304539318882,NEI,2017.0,BILLINGS REFINERY,MT,45.780642,-108.489063,Yellowstone,324110,,7765411
110012710423.0,Nitrogen Oxides,air,8541.1443271,360844862.1552483,kg,2.3669851570244326e-05,NEI,2017.0,AIR PRODUCTS BAYTOWN II PLANT,TX,29.758742,-95.022772,Harris,325120,,7908111
110000597499.0,Nitrogen Oxides,air,97016.15046508002,79334077.46358846,kg,0.0012228811825486597,NEI,2017.0,Calumet Princeton Refining LP - Calumet Princeton Refinery,LA,32.59004,-93.51317,Bossier,324110,,7929011
110000437974.0,Nitrogen Oxides,air,60215.28069446891,74875379.07713653,kg,0.0008042066889896503,NEI,2017.0,Evonik Corp,IL,40.564399,-89.724856,Peoria,325613,,7940111
110041962873.0,Nitrogen Oxides,air,1272102.2623945356,4257194058.865821,kg,0.00029881237378533837,NEI,2017.0,ConocoPhillips Co,IL,38.842222,-90.062885,Madison,324110,,7940411
110000453697.0,Nitrogen Oxides,air,561428.51285906,798107203.6031533,kg,0.0007034500006069633,NEI,2017.0,WYNNEWOOD REFINERY,OK,34.63533,-97.16859,Garvin,324110,,7996711
110013703206.0,Nitrogen Oxides,air,394693.9545056012,1186928462.449244,kg,0.0003325339032574419,NEI,2017.0,CRRM Refinery,KS,37.047556,-95.606106,Montgomery,324110,,8066611
110000446134.0,Nitrogen Oxides,air,783542.4783727409,1659334375.4660707,kg,0.00047220288445640196,NEI,2017.0,HollyFrontier El Dorado Refinery,KS,37.794007,-96.87414,Butler,324110,,8066911
110016678969.0,Nitrogen Oxides,air,737279.3274873212,1198986361.741345,kg,0.0006149188606420305,NEI,2017.0,CHS McPherson Refinery,KS,38.347278,-97.673846,McPherson,324110,,8067211
110000606746.0,Nitrogen Oxides,air,361209.2120021,999784769.5067706,kg,0.0003612869719752756,NEI,2017.0,VALERO ARDMORE REFINERY,OK,34.20569,-97.10417,Carter,324110,,8071911
110000595348.0,Nitrogen Oxides,air,551405.1730906107,1754068359.272163,kg,0.0003143578585041075,NEI,2017.0,CITGO Petroleum Corp,IL,41.647141,-88.054474,Will,324110,,8191811
110041135580.0,Nitrogen Oxides,air,1333616.0360789744,4928819576.2740555,kg,0.0002705751378075645,NEI,2017.0,Marathon Petroleum Company LP - Louisiana Refining Division - Garyville Refinery,LA,30.06213,-90.59537,St. John the Baptist,324110,,8241011
110000377477.0,Nitrogen Oxides,air,1851210.2522914,4917844627.827805,kg,0.0003764271530288409,NEI,2017.0,"CHEVRON TEXACO PRODUCTS COMPANY, PASCAGO",MS,30.343733,-88.4938,Jackson,32411,,8384311
110000428500.0,Nitrogen Oxides,air,121802.25193136,316229219.8381502,kg,0.0003851707694617841,NEI,2017.0,CALUMET MONTANA REFINING,MT,47.523997,-111.29147,Cascade,324110,,8385311
110000595124.0,Nitrogen Oxides,air,384760.000007922,898088548.9435643,kg,0.00042842100643697244,NEI,2017.0,CHS INC REFINERY LAUREL,MT,45.65922,-108.76778,Yellowstone,324110,,8385711
110046264760.0,Nitrogen Oxides,air,204914.8890712,611464633.9591496,kg,0.0003351214079944481,NEI,2017.0,Praxair Inc - Geismar Plant,LA,30.19796,-91.01308,Ascension,325120,,8465711
110043813816.0,Nitrogen Oxides,air,483680.5122256176,865758394.8388094,kg,0.0005586783970089846,NEI,2017.0,Saint Paul Park Refining Co LLC,MN,44.8522,-93.0038,Washington,324110,,8498611
110017413299.0,Nitrogen Oxides,air,415712.145433508,680665402.3732907,kg,0.000610743757482069,NEI,2017.0,Kenai Refinery,AK,60.6853,-151.3701,Kenai Peninsula,324110,,863411
110056955610.0,Nitrogen Oxides,air,17987.931180142,440361238.219655,kg,4.084812562719134e-05,NEI,2017.0,LONGVIEW POX ASU PLT,TX,32.448033,-94.687231,Harrison,325120,,9123011
110022411530.0,Nitrogen Oxides,air,36224.249542096,1497111912.073406,kg,2.4196086645204558e-05,NEI,2017.0,TEXAS CITY HYDROGEN COMPLEX,TX,29.366592,-94.938039,Galveston,325120,,9132211
110016734300.0,Nitrogen Oxides,air,2760.6175949044,320300616.5557129,kg,8.618833221709456e-06,NEI,2017.0,Linde Gas North America LLC,IL,41.642514,-88.056193,Will,325120,,9679911
110007235269.0,Nitrogen Oxides,air,862839.2638032552,530185668.64300984,kg,0.0016274284931383747,NEI,2017.0,Ascend Performance Materials LLC,AL,34.63431,-87.02182,Morgan,325199,,985511
110017419667.0,Nitrogen Oxides,air,175197.48258597616,644581388.8079883,kg,0.00027180040508145204,NEI,2017.0,LION OIL COMPANY,AR,33.195555,-92.681111,Union,32411,,993611
110071160496.0,Nitrous Oxide,air,38.0,232264618.0,kg,1.6360649472663117e-07,GHGRP,2017.0,"AIR PRODUCTS & CHEMICALS, INC, Tesoro Martinez",CA,38.026667,-122.067222,CONTRA COSTA COUNTY,325120,,1002122
110042061238.0,Nitrous Oxide,air,9216.0,1144915111.2001283,kg,8.049505076703512e-06,GHGRP,2017.0,Marathon El Paso Refinery,TX,31.76945,-106.41426,EL PASO COUNTY,324110,,1003564
110070813729.0,Nitrous Oxide,air,2648.0,475005978.0,kg,5.5746666834580345e-06,GHGRP,2017.0,"IES DOWNSTREAM, LLC - KAPOLEI REFINERY",HI,21.31948,-158.116295,HONOLULU COUNTY,324110,,1004891
110004721515.0,Nitrous Oxide,air,13.0,22120543.0,kg,5.876890092616623e-07,GHGRP,2017.0,"Air Products and Chemicals, Inc.",OH,39.18291,-84.50394,HAMILTON COUNTY,325120,,1005573
110071161537.0,Nitrous Oxide,air,35588.0,6339905528.0,kg,5.613332855328314e-06,GHGRP,2017.0,Los Angeles Refinery (LAR),CA,33.82431,-118.23237,LOS ANGELES COUNTY,324110,,1006627
110071162280.0,Nitrous Oxide,air,4559.0,604795819.0,kg,7.5380812115038775e-06,GHGRP,2017.0,REFINERY KAPOLEI,HI,21.304291,-158.091296,HONOLULU COUNTY,324110,,1006932
110000468093.0,Nitrous Oxide,air,6833.0,1033659611.0107741,kg,6.610493364753107e-06,GHGRP,2017.0,SINCLAIR OIL CORPORATION,WY,41.77899,-107.104,CARBON COUNTY,324110,,1007217
110000398338.0,Nitrous Oxide,air,36109.0,4698091038.888697,kg,7.685887672483536e-06,GHGRP,2017.0,BP Whiting Business Unit,IN,41.6703,-87.4803,Lake,324110,,1007339
110070560801.0,Nitrous Oxide,air,12997.0,2170704197.0,kg,5.987457903275063e-06,GHGRP,2017.0,Martinez Renewable Fuel Facility,CA,38.02549,-122.06812,CONTRA COSTA COUNTY,324110,,1007390
110038160584.0,Nitrous Oxide,air,42.0,37559973.76287843,kg,1.1182116437341543e-06,GHGRP,2017.0,MARTIN OPERATING PTNR LP,AR,33.364143,-92.716924,UNION COUNTY,324110,,1007661
110060241885.0,Nitrous Oxide,air,34.0,1037422243.957566,kg,3.277354056945661e-08,GHGRP,2017.0,Linde Facility 0379,TX,29.89028,-93.9368,JEFFERSON COUNTY,325120,,1011080
110059678353.0,Nitrous Oxide,air,730.0,147655713.39929804,kg,4.943933310767983e-06,GHGRP,2017.0,Marathon Petroleum Corporation,ND,47.087672,-102.9482,DUNN COUNTY,324110,,1011549
110071159424.0,Nitrous Oxide,air,486.0,73779693.73816246,kg,6.587178332899708e-06,GHGRP,2017.0,PETRO STAR VALDEZ REFINERY,AK,61.08276,-146.25017,VALDEZ-CORDOVA CENSUS AREA,324110,,1005997
110009059703.0,Nitrous Oxide,air,5.0,125385829.64581259,kg,3.9876914433823196e-08,GHGRP,2017.0,Linde Decatur,AL,34.62946,-87.01574,MORGAN COUNTY,325120,,1008002
110067040703.0,Nitrous Oxide,air,870.0,1263208477.025752,kg,6.887224205844718e-07,GHGRP,2017.0,ARKEMA INC CLEAR LAKE,TX,29.625819,-95.061592,HARRIS COUNTY,325110,,1006797
110032913024.0,Nitrous Oxide,air,9523.0,946883514.351265,kg,1.0057203294456404e-05,GHGRP,2017.0,SUNCOR ENERGY (USA) COMMERCE CITY REFINERY,CO,39.802789,-104.9475,ADAMS COUNTY,324110,,1007923
110002899908.0,Nitrous Oxide,air,21623.0,3628354049.397025,kg,5.959451504903001e-06,GHGRP,2017.0,"CHEVRON PRODUCTS, EL SEGUNDO REFINERY",CA,33.9082,-118.4085,LOS ANGELES COUNTY,324110,,1007978
110041133163.0,Nitrous Oxide,air,19584.0,2594695220.9286857,kg,7.547707276768542e-06,GHGRP,2017.0,Phillips 66 BAYWAY REFINERY,NJ,40.6365,-74.2199,UNION COUNTY,324110,,1004305
110033145353.0,Nitrous Oxide,air,13716.0,2404469905.971534,kg,5.704375823517744e-06,GHGRP,2017.0,VALERO REFINING CO - CALI FORNIA BENICIA REFINERY,CA,38.07167,-122.13975,SOLANO COUNTY,324110,,1008504
110000483487.0,Nitrous Oxide,air,13565.0,1444318518.017398,kg,9.391972636770277e-06,GHGRP,2017.0,SAN FRANCISCO REFINERY AT RODEO,CA,38.0436,-122.2532,CONTRA COSTA COUNTY,324110,,1006395
110056382463.0,Nitrous Oxide,air,99.0,909755505.3576707,kg,1.088204461714998e-07,GHGRP,2017.0,"Linde Inc, St. Charles Facility",LA,30.00055,-90.39502,ST. CHARLES PARISH,325120,,1010879
110066943605.0,Nitrous Oxide,air,3581.0,1891235131.0514026,kg,1.8934715949408148e-06,GHGRP,2017.0,"Olin Blue Cube, Freeport, TX",TX,28.969389,-95.379528,BRAZORIA COUNTY,325199,,1011834
110000465719.0,Nitrous Oxide,air,23345.0,1722208180.9019105,kg,1.3555271806788397e-05,GHGRP,2017.0,"Diamond Shamrock Refining Company, L.P.",TX,35.951944,-101.873889,MOORE COUNTY,324110,,1007936
110069359063.0,Nitrous Oxide,air,14761.0,2870039701.893094,kg,5.143134427814208e-06,GHGRP,2017.0,TORRANCE REFINING COMPANY LLC,CA,33.854967,-118.336907,LOS ANGELES COUNTY,324110,,1007329
110000481684.0,Nitrous Oxide,air,231.0,99437537.38077267,kg,2.323066380007379e-06,GHGRP,2017.0,SAN JOAQUIN REFINING CO INC,CA,35.39511,-119.04652,KERN COUNTY,324110,,1002565
110000476084.0,Nitrous Oxide,air,1500.0,747050819.3091918,kg,2.0078955289642417e-06,GHGRP,2017.0,AIR PRODUCTS WILMINGTON HYDROGEN PLANT,CA,33.780833,-118.241111,LOS ANGELES COUNTY,325120,,1002435
110027982565.0,Nitrous Oxide,air,1155.0,214391219.93142825,kg,5.387347487315105e-06,GHGRP,2017.0,ERGON WEST VIRGINIA INC,WV,40.6111,-80.630833,HANCOCK COUNTY,324110,,1007882
110000468048.0,Nitrous Oxide,air,4050.0,752831285.0800831,kg,5.3796914132881416e-06,GHGRP,2017.0,HollyFrontier Cheyenne Refining LLC,WY,41.129889,-104.789222,LARAMIE COUNTY,324110,,1007922
110042005843.0,Nitrous Oxide,air,14143.0,2135033635.4169197,kg,6.624251611491928e-06,GHGRP,2017.0,BORGER REFINERY,TX,35.70306,-101.36305,HUTCHINSON COUNTY,324110,,1006301
110000462758.0,Nitrous Oxide,air,19308.00331183385,658434560.8309988,kg,2.9324103654986696e-05,NEI,2017.0,AIR LIQUIDE BAYPORT COMPL,TX,29.621583,-95.045069,Harris,325120,,4925011
110000465103.0,Nitrous Oxide,air,27283.0,3013233809.2445636,kg,9.05439196795685e-06,GHGRP,2017.0,VALERO CORPUS CHRISTI REFINERY,TX,27.81775,-97.482552,NUECES COUNTY,324110,,1008110
110043815690.0,Nitrous Oxide,air,4382.0,620591639.6158944,kg,7.061003919924172e-06,GHGRP,2017.0,United Refining Company,PA,41.8359,-79.1374,WARREN COUNTY,324110,,1007008
110043802819.0,Nitrous Oxide,air,2704.0,2618752020.771799,kg,1.032552902509294e-06,GHGRP,2017.0,Air Products Port Arthur Facility,TX,29.859444,-93.965833,JEFFERSON COUNTY,325120,,1006402
110000501993.0,Nitrous Oxide,air,9218.0,1203264716.777202,kg,7.660824647704531e-06,GHGRP,2017.0,VALERO CORPUS CHRISTI REFINERY EAST PLANT,TX,27.810775,-97.436658,NUECES COUNTY,324110,,1006959
110038102969.0,Nitrous Oxide,air,6894.0,915370305.7026702,kg,7.53137823791206e-06,GHGRP,2017.0,Phillips 66 Los Angeles Refinery - Carson Plant,CA,33.8048,-118.2431,LOS ANGELES COUNTY,324110,,1001964
110000490157.0,Nitrous Oxide,air,15107.0,2183360269.399546,kg,6.919151278755582e-06,GHGRP,2017.0,BP CHERRY POINT REFINERY,WA,48.884,-122.735,WHATCOM COUNTY,324110,,1006468
110001148598.0,Nitrous Oxide,air,22970.0,3567675230.75755,kg,6.438366306992191e-06,GHGRP,2017.0,Delaware City Refinery,DE,39.5936,-75.6337,New Castle,324110,,1007322
110000449113.0,Nitrous Oxide,air,5.0,288518270.2021085,kg,1.732992505638369e-08,GHGRP,2017.0,AIR PRODUCTS & CHEMICALS INC - INDUSTRIAL GAS PRODUCTION FACILITY,LA,30.022255,-89.900984,ORLEANS PARISH,325120,,1003009
110000424611.0,Nitrous Oxide,air,17219.0,3878711013.017427,kg,4.439361412131746e-06,GHGRP,2017.0,Flint Hills Resources Pine Bend Refinery,MN,44.764434,-93.039484,DAKOTA COUNTY,324110,,1006985
110040620600.0,Nitrous Oxide,air,602.0,295852896.36009866,kg,2.0347950194385558e-06,GHGRP,2017.0,ERGON REFINING INC,MS,32.388015,-90.900203,WARREN COUNTY,324110,,1008014
110000825037.0,Nitrous Oxide,air,46.0,398846483.46440274,kg,1.1533259513896535e-07,GHGRP,2017.0,LINDE TEXAS CITY,TX,29.37815,-94.90251,GALVESTON COUNTY,325120,,1006562
110000476235.0,Nitrous Oxide,air,11293.0,1895241947.2972476,kg,5.958605979624204e-06,GHGRP,2017.0,Phillips 66 Los Angeles Refinery - Wilmington Plant,CA,33.774469,-118.290696,LOS ANGELES COUNTY,324110,,1006843
110020506460.0,Nitrous Oxide,air,25032.0,4585778846.353054,kg,5.458614738891579e-06,GHGRP,2017.0,CHEVRON PRODS.CO. RICHMOND REFY,CA,37.938779,-122.396453,CONTRA COSTA COUNTY,324110,,1003610
110000483245.0,Nitrous Oxide,air,16082.0,3333514199.5095005,kg,4.824338232117426e-06,GHGRP,2017.0,MARTINEZ REFINING COMPANY LLC,CA,38.016594,-122.115392,CONTRA COSTA COUNTY,324110,,1001804
110005184497.0,Nitrous Oxide,air,5.0,187543539.23557785,kg,2.6660475857392145e-08,GHGRP,2017.0,AIR LIQUIDE - FREEPORT HYCO PLANT,TX,28.98037,-95.38396,BRAZORIA COUNTY,325120,,1003730
110000374087.0,Nitrous Oxide,air,15363.0,1314275754.3630772,kg,1.1689327714521523e-05,GHGRP,2017.0,"VALERO REFINING CO. (PREV. PREMCOR REFINING, PREV. WILLIAMS REFINING LLC)",TN,35.085843,-90.083385,SHELBY COUNTY,324110,,1008271
110022294569.0,Nitrous Oxide,air,22285.0,1774697908.5917869,kg,1.255706669406233e-05,GHGRP,2017.0,Paulsboro Refining Company LLC,NJ,39.84,-75.2583,Gloucester,324110,,1007844
110000597471.0,Nitrous Oxide,air,350.0,97729100.53317891,kg,3.5813283667864664e-06,GHGRP,2017.0,CALUMET LUBRICANTS CO LP CALUMET COTTON VALLEY,LA,32.800556,-93.412778,WEBSTER PARISH,324110,,1006499
110002321381.0,Nitrous Oxide,air,11.0,1778425093.9303381,kg,6.1852478563996665e-09,GHGRP,2017.0,"LINDE - WHITING, IN 1-4",IN,41.668631,-87.472829,LAKE COUNTY,325120,,1002119
110000428421.0,Nitrous Oxide,air,5139.0,629603017.5307117,kg,8.162286165900281e-06,GHGRP,2017.0,ExxonMobil Fuels & Lubricants Company Billings Refinery,MT,45.813904,-108.433295,YELLOWSTONE COUNTY,324110,,1007000
110015682830.0,Nitrous Oxide,air,20203.0,1987682540.0536292,kg,1.0164097934600214e-05,GHGRP,2017.0,Phillips 66 Ponca City Refinery,OK,36.6821,-97.0895,KAY COUNTY,324110,,1001920
110000540317.0,Nitrous Oxide,air,1743.0,425948653.60300124,kg,4.092042515585778e-06,GHGRP,2017.0,CALUMET SHREVPORT REFINING LLC,LA,32.470833,-93.790833,CADDO PARISH,324110,,1005125
110000472630.0,Nitrous Oxide,air,3947.0,612943938.4730549,kg,6.439414361177357e-06,GHGRP,2017.0,"NAVAJO REFINING COMPANY, LLC - Artesia Refinery",NM,32.848593,-104.394383,EDDY COUNTY,324110,,1007972
110000367102.0,Nitrous Oxide,air,4979.0,805982118.9162704,kg,6.177556403726178e-06,GHGRP,2017.0,HUNT REFINING COMPANY,AL,33.2003,-87.607,TUSCALOOSA COUNTY,324110,,1005879
110000448659.0,Nitrous Oxide,air,21337.0,2517150143.4331474,kg,8.476649696747295e-06,GHGRP,2017.0,"Valero Refining - New Orleans, L.L.C.",LA,29.985278,-90.392778,ST. CHARLES PARISH,324110,,1009080
110001538872.0,Nitrous Oxide,air,1.0,36936099.044902995,kg,2.7073784884113127e-08,GHGRP,2017.0,PRAXAIR INC,NJ,39.687732,-75.487665,SALEM COUNTY,325120,,1002021
110027373045.0,Nitrous Oxide,air,24685103.0,1129127578.0089772,kg,0.02186210263638051,GHGRP,2017.0,Ascend Performance Materials LLC,FL,30.596678,-87.251977,ESCAMBIA COUNTY,325211,,1004962
110043806085.0,Nitrous Oxide,air,4811.0,791837485.1539161,kg,6.075741664421009e-06,GHGRP,2017.0,PHILLIPS 66 BILLINGS REFINERY,MT,45.776389,-108.484444,YELLOWSTONE COUNTY,324110,,1007506
110012710423.0,Nitrous Oxide,air,619.0,360844862.1552483,kg,1.7154186325470922e-06,GHGRP,2017.0,AIR PRODUCTS BAYTOWN PLANT,TX,29.757778,-95.023056,HARRIS COUNTY,325120,,1002430
110000597499.0,Nitrous Oxide,air,142.0,79334077.46358846,kg,1.7898991775025428e-06,GHGRP,2017.0,CALUMET LUBRICANTS CO LP,LA,32.58901,-93.51512,BOSSIER PARISH,324110,,1006500
110000437974.0,Nitrous Oxide,air,116.0,74875379.07713653,kg,1.5492409044166164e-06,GHGRP,2017.0,EVONIK CORPORATION,IL,40.564725,-89.724485,PEORIA COUNTY,325199,,1005465
110041962873.0,Nitrous Oxide,air,29724.0,4257194058.865821,kg,6.982063675978847e-06,GHGRP,2017.0,WRB Refining LP Wood River Refinery,IL,38.8375,-90.0675,Madison,324110,,1007518
110000453697.0,Nitrous Oxide,air,6905.0,798107203.6031533,kg,8.651719930388458e-06,GHGRP,2017.0,WYNNEWOOD REFINING CO,OK,34.6289,-97.1685,GARVIN COUNTY,324110,,1002310
110013703206.0,Nitrous Oxide,air,10640.0,1186928462.449244,kg,8.964314477760695e-06,GHGRP,2017.0,"Coffeyville Resources Refining & Marketing, LLC",KS,37.047556,-95.606106,MONTGOMERY COUNTY,324110,,1004381
110000446134.0,Nitrous Oxide,air,10856.0,1659334375.4660707,kg,6.54238239170498e-06,GHGRP,2017.0,HOLLYFRONTIER EL DORADO REFINING LLC,KS,37.794007,-96.87414,BUTLER COUNTY,324110,,1004291
110016678969.0,Nitrous Oxide,air,9418.0,1198986361.741345,kg,7.854968413753924e-06,GHGRP,2017.0,CHS MCPHERSON REFINERY INC.,KS,38.3468,-97.6745,MCPHERSON COUNTY,324110,,1007942
110000606746.0,Nitrous Oxide,air,15408.0,999784769.5067706,kg,1.5411316985356073e-05,GHGRP,2017.0,VALERO REFINING CO -OKLAHOMA VALERO ARDMORE REFINERY,OK,34.20569,-97.10417,CARTER COUNTY,324110,,1007786
110000595348.0,Nitrous Oxide,air,16733.0,1754068359.272163,kg,9.539536992129102e-06,GHGRP,2017.0,Lemont Refinery,IL,41.6439,-88.0467,Will,324110,,1000343
110041135580.0,Nitrous Oxide,air,38221.0,4928819576.2740555,kg,7.75459507261842e-06,GHGRP,2017.0,Garyville Refinery,LA,30.06132,-90.59353,ST. JOHN THE BAPTIST PARISH,324110,,1003043
110000377477.0,Nitrous Oxide,air,46466.0,4917844627.827805,kg,9.448448154923487e-06,GHGRP,2017.0,Chevron Pascagoula Refinery,MS,30.343733,-88.4938,JACKSON COUNTY,324110,,1003286
110000428500.0,Nitrous Oxide,air,1805.0,316229219.8381502,kg,5.70788493524988e-06,GHGRP,2017.0,"Calumet Montana Refining, LLC",MT,47.523611,-111.294167,CASCADE COUNTY,324110,,1007739
110000595124.0,Nitrous Oxide,air,6602.0,898088548.9435643,kg,7.351168220289677e-06,GHGRP,2017.0,CHS INC LAUREL REFINERY,MT,45.65922,-108.76778,YELLOWSTONE COUNTY,324110,,1006671
110046264760.0,Nitrous Oxide,air,2.0,611464633.9591496,kg,3.2708351209951008e-09,GHGRP,2017.0,Linde Inc - GEISMAR HYCO FACILITY,LA,30.199444,-91.013333,ASCENSION PARISH,325120,,1003255
110043813816.0,Nitrous Oxide,air,6583.0,865758394.8388094,kg,7.6037379934683175e-06,GHGRP,2017.0,"St. Paul Park Refining Company, LLC",MN,44.850583,-93.002139,WASHINGTON COUNTY,324110,,1002027
110017413299.0,Nitrous Oxide,air,5054.0,680665402.3732907,kg,7.425087249003857e-06,GHGRP,2017.0,TESORO ALASKA PETROLEUM CO,AK,60.683603,-151.367204,KENAI PENINSULA BOROUGH,324110,,1007741
110016734300.0,Nitrous Oxide,air,36.5776887168,320300616.5557129,kg,1.1419799658873806e-07,NEI,2017.0,Linde Gas North America LLC,IL,41.642514,-88.056193,Will,325120,,9679911
110007235269.0,Nitrous Oxide,air,5000.872483221477,530185668.64300984,kg,9.432304151149579e-06,GHGRP,2017.0,Ascend (Decatur Plant),AL,34.6339,-87.0244,Morgan,325199,,1000158
110017419667.0,Nitrous Oxide,air,5146.0,644581388.8079883,kg,7.983475926161004e-06,GHGRP,2017.0,LION OIL CO-EL DORADO REFINERY,AR,33.200091,-92.675095,UNION COUNTY,324110,,1007861
110011942862.0,Sulfur Dioxide,air,426.3768278,95849323.8444681,kg,4.4484072573309875e-06,NEI,2017.0,"Matheson Tri-Gas, Inc. (0302020242)",OH,40.715,-84.12361,Allen,325120,,16535711
110042061238.0,Sulfur Dioxide,air,90088.252761122,1144915111.2001283,kg,7.868553037673619e-05,NEI,2017.0,MARATHON EL PASO REFINERY,TX,31.766622,-106.401514,El Paso,324110,,6476111
110000398338.0,Sulfur Dioxide,air,292615.0587437139,4698091038.888697,kg,6.228382045421795e-05,NEI,2017.0,BP Products North America Inc Whiting R,IN,41.663055,-87.479643,Lake,32411,,7247711
110038160584.0,Sulfur Dioxide,air,9817.643974754,37559973.76287843,kg,0.0002613858049191997,NEI,2017.0,Martin Operating Partnership L.P.,AR,33.363731,-92.714928,Union,324191,,17077411
110070261635.0,Sulfur Dioxide,air,408.233133,35853215.08689374,kg,1.1386235014366424e-05,NEI,2017.0,Matheson Gas Anacortes,WA,48.4676,-122.555,Skagit,325120,,16856811
110055569567.0,Sulfur Dioxide,air,1520.4416242400002,1169575847.1320393,kg,1.2999940345624716e-06,NEI,2017.0,Air Products & Chemicals Inc - Norco Hydrogen Plant,LA,29.99634,-90.38633,St. Charles,325120,,16965911
110002305443.0,Sulfur Dioxide,air,209.19045075082,612068582.2492851,kg,3.4177616172042024e-07,NEI,2017.0,AIR PROD & CHEM INC,CA,33.8124,-118.2312,Los Angeles,325120,,10204011
110071159424.0,Sulfur Dioxide,air,684.9244787,73779693.73816246,kg,9.283373839023185e-06,NEI,2017.0,Petro Star Valdez Refinery,AK,61.0849,-146.2538,Chugach Census Area,324110,,1025911
110009059703.0,Sulfur Dioxide,air,843.6818082000001,125385829.64581259,kg,6.728685454992927e-06,NEI,2017.0,Linde Gas North America LLC,AL,34.62971,-87.01083,Morgan,325120,,10552711
110067040703.0,Sulfur Dioxide,air,12894.179583516,1263208477.025752,kg,1.02074834186322e-05,NEI,2017.0,CLEAR LAKE PLANT,TX,29.625769,-95.063564,Harris,325120,,10679911
110032913024.0,Sulfur Dioxide,air,177710.5043363173,946883514.351265,kg,0.00018767937306213582,NEI,2017.0,SUNCOR ENERGY - DENVER REFINERY,CO,39.80311,-104.94954,Adams,324110,,1099511
110002899908.0,Sulfur Dioxide,air,255661.2950779484,3628354049.397025,kg,7.04620584422943e-05,NEI,2017.0,CHEVRON REFINERY,CA,33.9142,-118.427,Los Angeles,48811,,11161011
110041133163.0,Sulfur Dioxide,air,37304.71021431865,2594695220.9286857,kg,1.4377299466010754e-05,NEI,2017.0,BAYWAY REFINERY,NJ,40.6362,-74.2343,Union,48811,,12323111
110018885731.0,Sulfur Dioxide,air,635.534892055602,629851409.4205782,kg,1.0090235292801078e-06,NEI,2017.0,"AIR LIQUIDE LARGE INDUSTRIES U.S., LP",CA,33.91607,-118.41869,Los Angeles,325120,,13490211
110033145353.0,Sulfur Dioxide,air,86295.71480603723,2404469905.971534,kg,3.588970466701232e-05,NEI,2017.0,VALERO REFINING COMPANY - CALIFORNIA,CA,38.07167,-122.13975,Solano,324110,,14217311
110043973055.0,Sulfur Dioxide,air,90.718474,63465892.774041794,kg,1.429405150306257e-06,NEI,2017.0,Air Liquide,WA,48.4678,-122.554,Skagit,325120,,15622111
110000483487.0,Sulfur Dioxide,air,333404.6538956448,1444318518.017398,kg,0.00023083873102541544,NEI,2017.0,PHILLIPS 66 COMPANY - SAN FRANCISCO REFINERY,CA,38.043508,-122.253603,Contra Costa,324110,,15733011
110041623641.0,Sulfur Dioxide,air,558.5504520349,836901518.7163593,kg,6.674028419635388e-07,NEI,2017.0,AIR LIQUIDE LARGE INDUSTRIES US LP,CA,38.049713,-122.254898,Contra Costa,325120,,15748611
110067130660.0,Sulfur Dioxide,air,789.341442274,731550349.1426487,kg,1.0789981075110967e-06,NEI,2017.0,LA PORTE SMR,TX,29.646294,-95.05535,Harris,325120,,16636311
110022828813.0,Sulfur Dioxide,air,217.7243376,701526316.904017,kg,3.1035804695234136e-07,NEI,2017.0,Air Products & Chemicals Inc - SMR Facility,LA,30.10894,-90.88534,St. James,325120,,16859811
110056382463.0,Sulfur Dioxide,air,2208.0876571600006,909755505.3576707,kg,2.427122060989222e-06,NEI,2017.0,Praxair Inc - St Charles Plant,LA,29.99324,-90.38778,St. Charles,325120,,16862611
110066943605.0,Sulfur Dioxide,air,2282.6582427880003,1891235131.0514026,kg,1.2069669208814836e-06,NEI,2017.0,BLUE CUBE OPERATIONS FREEPORT,TX,28.989642,-95.411392,Brazoria,325110,,17735411
110000465719.0,Sulfur Dioxide,air,101669.463870436,1722208180.9019105,kg,5.9034363555973986e-05,NEI,2017.0,VALERO PARTNERS MCKEE,TX,35.959308,-101.889197,Moore,424710,,17906111
110069359063.0,Sulfur Dioxide,air,219462.26170638832,2870039701.893094,kg,7.646662921130666e-05,NEI,2017.0,TORRANCE REFINING COMPANY LLC,CA,33.85726,-118.33718,Los Angeles,324110,,17922111
110024422418.0,Sulfur Dioxide,air,6290.237550212,1371807479.88106,kg,4.585364668486415e-06,NEI,2017.0,LYONDELLBASELL SYNGAS,TX,29.705753,-95.056728,Harris,325120,,4167411
110000481684.0,Sulfur Dioxide,air,3055.046307359354,99437537.38077267,kg,3.072326998265024e-05,NEI,2017.0,SAN JOAQUIN REFINING COMPANY,CA,35.3972,-119.0467,Kern,326211,,4195511
110000476084.0,Sulfur Dioxide,air,1639.5958039153,747050819.3091918,kg,2.194758055993375e-06,NEI,2017.0,"AIR PRODUCTS AND CHEMICALS, INC.",CA,33.77901,-118.24143,Los Angeles,325120,,4197911
110027982565.0,Sulfur Dioxide,air,7550.861464916,214391219.93142825,kg,3.522001258881356e-05,NEI,2017.0,"ERGON - WEST VIRGINIA, INC.",WV,40.611,-80.631,Hancock,32411,,4781911
110065364135.0,Sulfur Dioxide,air,10.200929527404002,74759070.03691821,kg,1.364507279500198e-07,NEI,2017.0,PRAXAIR INC,CA,34.062648,-117.529208,San Bernardino,325120,,4785511
110000468048.0,Sulfur Dioxide,air,227920.19369674555,752831285.0800831,kg,0.0003027506935667536,NEI,2017.0,HollyFrontier Cheyenne Refinery,WY,41.1275,-104.7892,Laramie,324110,,4787811
110042005843.0,Sulfur Dioxide,air,185874.170000288,2135033635.4169197,kg,8.705912961600313e-05,NEI,2017.0,BORGER REFINERY,TX,35.698569,-101.363897,Hutchinson,324110,,4861611
110000462758.0,Sulfur Dioxide,air,5197.714967829999,658434560.8309988,kg,7.894049427281056e-06,NEI,2017.0,AIR LIQUIDE BAYPORT COMPL,TX,29.621583,-95.045069,Harris,325120,,4925011
110000465103.0,Sulfur Dioxide,air,106218.269593744,3013233809.2445636,kg,3.525059000329403e-05,NEI,2017.0,CORPUS CHRISTI WEST PLANT,TX,27.817361,-97.489161,Nueces,324110,,4929811
110043815690.0,Sulfur Dioxide,air,288150.086869414,620591639.6158944,kg,0.0004643151284599323,NEI,2017.0,UNITED REFINING CO/WARREN PLT,PA,41.82992,-79.12443,Warren,324110,,4966711
110043802819.0,Sulfur Dioxide,air,48196.45727435,2618752020.771799,kg,1.8404360891011565e-05,NEI,2017.0,AIR PRODUCTS PORT ARTHUR FACILITY,TX,29.865286,-93.970633,Jefferson,325120,,5611511
110000501993.0,Sulfur Dioxide,air,87127.746080606,1203264716.777202,kg,7.240945808995967e-05,NEI,2017.0,VALERO CORPUS CHRISTI REFINING EAST,TX,27.812092,-97.447489,Nueces,324110,,5656011
110038102969.0,Sulfur Dioxide,air,218411.65976796785,915370305.7026702,kg,0.00023860470282604092,NEI,2017.0,PHILLIPS 66 COMPANY/LOS ANGELES REFINERY,CA,33.804002,-118.243606,Los Angeles,324110,,5682211
110000490157.0,Sulfur Dioxide,air,733005.26992,2183360269.399546,kg,0.00033572346267965496,NEI,2017.0,BP CHERRY POINT REFINERY,WA,48.861,-122.757,Whatcom,324110,,5763011
110001148598.0,Sulfur Dioxide,air,335730.50129518745,3567675230.75755,kg,9.410343699471193e-05,NEI,2017.0,Delaware City Refinery,DE,39.588611,-75.635555,New Castle,32411,,588311
110000449113.0,Sulfur Dioxide,air,181.5367383214,288518270.2021085,kg,6.292036140180398e-07,NEI,2017.0,Air Products & Chemicals Inc - New Orleans Facility,LA,30.0297,-89.90054,Orleans,325120,,6051911
110006020304.0,Sulfur Dioxide,air,711.23283616,53249922.38040458,kg,1.3356504655145308e-05,NEI,2017.0,Air Products & Chemicals Inc - Geismar 1 SMR Facility,LA,30.1825,-90.98694,Ascension,325120,,6116311
110000424611.0,Sulfur Dioxide,air,616228.691233664,3878711013.017427,kg,0.00015887460786986332,NEI,2017.0,Flint Hills Resources Pine Bend Refinery,MN,44.76443,-93.03948,Dakota,324110,,6275811
110040620600.0,Sulfur Dioxide,air,8418.6743872,295852896.36009866,kg,2.845560915838787e-05,NEI,2017.0,ERGON REFINING INC,MS,32.388369,-90.906375,Warren,32411,,6284911
110000825037.0,Sulfur Dioxide,air,450.507941884,398846483.46440274,kg,1.129527175395563e-06,NEI,2017.0,TEXAS CITY,TX,29.378033,-94.900975,Galveston,325120,,6420711
110000476235.0,Sulfur Dioxide,air,98869.900562488,1895241947.2972476,kg,5.216742944270711e-05,NEI,2017.0,PHILLIPS 66 CO/LA REFINERY WILMINGTON PL,CA,33.776935,-118.288725,Los Angeles,324110,,6500611
110020506460.0,Sulfur Dioxide,air,339017.2890865254,4585778846.353054,kg,7.392796304517316e-05,NEI,2017.0,CHEVRON PRODUCTS COMPANY,CA,37.938779,-122.396453,Contra Costa,324110,,6530111
110000483245.0,Sulfur Dioxide,air,1047754.7042481748,3333514199.5095005,kg,0.0003143093568949979,NEI,2017.0,SHELL MARTINEZ REFINERY,CA,38.016594,-122.115392,Contra Costa,324110,,6531011
110005184497.0,Sulfur Dioxide,air,2674.562050468,187543539.23557785,kg,1.426101939511987e-05,NEI,2017.0,FREEPORT HYCO PLANT,TX,28.981494,-95.385706,Brazoria,325120,,6598211
110000374087.0,Sulfur Dioxide,air,57926.97920014356,1314275754.3630772,kg,4.407520948921109e-05,NEI,2017.0,"Valero Refining Co. (Prev. Premcor Refining, Prev. Williams Refining Llc)",TN,35.0875,-90.0864,Shelby,32411,,7156111
110022294569.0,Sulfur Dioxide,air,21637.444670688,1774697908.5917869,kg,1.2192184690101536e-05,NEI,2017.0,Paulsboro Refining Company LLC,NJ,39.8401,-75.2574,Gloucester,324110,,7201311
110000597471.0,Sulfur Dioxide,air,5757.90154478,97729100.53317891,kg,5.89169603870978e-05,NEI,2017.0,Calumet Cotton Valley Refining LLC - Cotton Valley Refinery,LA,32.79892,-93.41176,Webster,324110,,7205811
110002321381.0,Sulfur Dioxide,air,362.4640027189258,1778425093.9303381,kg,2.0381179053084355e-07,NEI,2017.0,PRAXAIR INC,IN,41.6677,-87.4686,Lake,32512,,7250911
110000428421.0,Sulfur Dioxide,air,595470.6202275599,629603017.5307117,kg,0.0009457874305669338,NEI,2017.0,EXXONMOBIL BILLINGS REFINERY,MT,45.813904,-108.433295,Yellowstone,324110,,7284611
110015682830.0,Sulfur Dioxide,air,67734.9486121,1987682540.0536292,kg,3.407734748742747e-05,NEI,2017.0,PONCA CITY PIPELINE ACTIVITIES,OK,36.68016,-97.09693,Kay,486110,,10722511
110000540317.0,Sulfur Dioxide,air,86826.6514654,425948653.60300124,kg,0.0002038430001619994,NEI,2017.0,Calumet Shreveport Refining LLC - Calumet Shreveport Refinery,LA,32.46908,-93.79286,Caddo,324110,,7381811
110000472630.0,Sulfur Dioxide,air,43699.0889258,612943938.4730549,kg,7.129377775504508e-05,NEI,2017.0,HollyFrontier - Artesia Refinery,NM,32.848593,-104.394383,Eddy,32411,,7399911
110000367102.0,Sulfur Dioxide,air,58234.91001482,805982118.9162704,kg,7.225335233630629e-05,NEI,2017.0,Hunt Refining Company,AL,33.201,-87.607,Tuscaloosa,324110,,7441411
110000448659.0,Sulfur Dioxide,air,219973.40823497425,2517150143.4331474,kg,8.738986381438176e-05,NEI,2017.0,Valero Partners LA LLC - St Charles Terminal,LA,29.99329,-90.39859,St. Charles,324110,,17652411
110001538872.0,Sulfur Dioxide,air,78.29004306200001,36936099.044902995,kg,2.1196077844285418e-06,NEI,2017.0,PRAXAIR INC,NJ,39.68935,-75.48763,Salem,325120,,7479711
110027373045.0,Sulfur Dioxide,air,14472.23469622392,1129127578.0089772,kg,1.2817182910139547e-05,NEI,2017.0,ASCEND PERFORMANCE MATERIALS OPERATIONS,FL,30.59903,-87.25021,Escambia,325220,,751411
110005191078.0,Sulfur Dioxide,air,121.10916279,375278617.8295859,kg,3.2271799414107757e-07,NEI,2017.0,HYDROGEN PLANT INDUST GAS,TX,27.815667,-97.477658,Nueces,325120,,7680711
110043806085.0,Sulfur Dioxide,air,123144.976065034,791837485.1539161,kg,0.00015551799248440137,NEI,2017.0,BILLINGS REFINERY,MT,45.780642,-108.489063,Yellowstone,324110,,7765411
110012710423.0,Sulfur Dioxide,air,91.62565874,360844862.1552483,kg,2.539198097285902e-07,NEI,2017.0,AIR PRODUCTS BAYTOWN II PLANT,TX,29.758742,-95.022772,Harris,325120,,7908111
110000597499.0,Sulfur Dioxide,air,84121.42657072,79334077.46358846,kg,0.001060344170628678,NEI,2017.0,Calumet Princeton Refining LP - Calumet Princeton Refinery,LA,32.59004,-93.51317,Bossier,324110,,7929011
110000437974.0,Sulfur Dioxide,air,394.45118242992,74875379.07713653,kg,5.268102643240802e-06,NEI,2017.0,Evonik Corp,IL,40.564399,-89.724856,Peoria,325613,,7940111
110041962873.0,Sulfur Dioxide,air,1355869.2496284477,4257194058.865821,kg,0.000318488946212067,NEI,2017.0,ConocoPhillips Co,IL,38.842222,-90.062885,Madison,324110,,7940411
110000453697.0,Sulfur Dioxide,air,310668.13576722,798107203.6031533,kg,0.00038925614800201075,NEI,2017.0,WYNNEWOOD REFINERY,OK,34.63533,-97.16859,Garvin,324110,,7996711
110013703206.0,Sulfur Dioxide,air,102583.73732496524,1186928462.449244,kg,8.642790241400246e-05,NEI,2017.0,CRRM Refinery,KS,37.047556,-95.606106,Montgomery,324110,,8066611
110000446134.0,Sulfur Dioxide,air,176345.27202482265,1659334375.4660707,kg,0.00010627470546754094,NEI,2017.0,HollyFrontier El Dorado Refinery,KS,37.794007,-96.87414,Butler,324110,,8066911
110016678969.0,Sulfur Dioxide,air,48358.10992159587,1198986361.741345,kg,4.033249373359267e-05,NEI,2017.0,CHS McPherson Refinery,KS,38.347278,-97.673846,McPherson,324110,,8067211
110000606746.0,Sulfur Dioxide,air,27958.52650206,999784769.5067706,kg,2.7964545324943224e-05,NEI,2017.0,VALERO ARDMORE REFINERY,OK,34.20569,-97.10417,Carter,324110,,8071911
110000595348.0,Sulfur Dioxide,air,238381.72519489328,1754068359.272163,kg,0.00013590218644261273,NEI,2017.0,CITGO Petroleum Corp,IL,41.647141,-88.054474,Will,324110,,8191811
110041135580.0,Sulfur Dioxide,air,340867.17815215606,4928819576.2740555,kg,6.915797441500889e-05,NEI,2017.0,Marathon Petroleum Company LP - Louisiana Refining Division - Garyville Refinery,LA,30.06213,-90.59537,St. John the Baptist,324110,,8241011
110000377477.0,Sulfur Dioxide,air,606362.280216,4917844627.827805,kg,0.00012329838091770464,NEI,2017.0,"CHEVRON TEXACO PRODUCTS COMPANY, PASCAGO",MS,30.343733,-88.4938,Jackson,32411,,8384311
110000428500.0,Sulfur Dioxide,air,11127.255865418,316229219.8381502,kg,3.518731087251538e-05,NEI,2017.0,CALUMET MONTANA REFINING,MT,47.523997,-111.29147,Cascade,324110,,8385311
110000595124.0,Sulfur Dioxide,air,124730.825709028,898088548.9435643,kg,0.00013888477462022073,NEI,2017.0,CHS INC REFINERY LAUREL,MT,45.65922,-108.76778,Yellowstone,324110,,8385711
110046264760.0,Sulfur Dioxide,air,464.38786840600005,611464633.9591496,kg,7.59468074873198e-07,NEI,2017.0,Praxair Inc - Geismar Plant,LA,30.19796,-91.01308,Ascension,325120,,8465711
110043813816.0,Sulfur Dioxide,air,72099.82223474763,865758394.8388094,kg,8.327937986460008e-05,NEI,2017.0,Saint Paul Park Refining Co LLC,MN,44.8522,-93.0038,Washington,324110,,8498611
110017413299.0,Sulfur Dioxide,air,11451.302254546,680665402.3732907,kg,1.6823687842247452e-05,NEI,2017.0,Kenai Refinery,AK,60.6853,-151.3701,Kenai Peninsula,324110,,863411
110056955610.0,Sulfur Dioxide,air,481.987252362,440361238.219655,kg,1.0945269713352512e-06,NEI,2017.0,LONGVIEW POX ASU PLT,TX,32.448033,-94.687231,Harrison,325120,,9123011
110022411530.0,Sulfur Dioxide,air,116.845394512,1497111912.073406,kg,7.804720112752056e-08,NEI,2017.0,TEXAS CITY HYDROGEN COMPLEX,TX,29.366592,-94.938039,Galveston,325120,,9132211
110016734300.0,Sulfur Dioxide,air,509.09211802372,320300616.5557129,kg,1.5894197254383644e-06,NEI,2017.0,Linde Gas North America LLC,IL,41.642514,-88.056193,Will,325120,,9679911
110007235269.0,Sulfur Dioxide,air,1476561.41225212,530185668.64300984,kg,0.0027849892963559787,NEI,2017.0,Ascend Performance Materials LLC,AL,34.63431,-87.02182,Morgan,325199,,985511
110017419667.0,Sulfur Dioxide,air,77597.537575179,644581388.8079883,kg,0.00012038439043156149,NEI,2017.0,LION OIL COMPANY,AR,33.195555,-92.681111,Union,32411,,993611
110011942862.0,Volatile Organic Compounds,air,17726.3898196,95849323.8444681,kg,0.00018494016554946278,NEI,2017.0,"Matheson Tri-Gas, Inc. (0302020242)",OH,40.715,-84.12361,Allen,325120,,16535711
110042061238.0,Volatile Organic Compounds,air,358976.1268694293,1144915111.2001283,kg,0.00031353951341697435,NEI,2017.0,MARATHON EL PASO REFINERY,TX,31.766622,-106.401514,El Paso,324110,,6476111
110000398338.0,Volatile Organic Compounds,air,531857.724029301,4698091038.888697,kg,0.00011320719833371055,NEI,2017.0,BP Products North America Inc Whiting R,IN,41.663055,-87.479643,Lake,32411,,7247711
110038160584.0,Volatile Organic Compounds,air,50873.00109227186,37559973.76287843,kg,0.0013544471945971129,NEI,2017.0,Martin Operating Partnership L.P.,AR,33.363731,-92.714928,Union,324191,,17077411
110070261635.0,Volatile Organic Compounds,air,872.0452365801202,35853215.08689374,kg,2.432265096635362e-05,NEI,2017.0,Matheson Gas Anacortes,WA,48.4676,-122.555,Skagit,325120,,16856811
110055569567.0,Volatile Organic Compounds,air,23195.6750752727,1169575847.1320393,kg,1.9832553085079247e-05,NEI,2017.0,Air Products & Chemicals Inc - Norco Hydrogen Plant,LA,29.99634,-90.38633,St. Charles,325120,,16965911
110002305443.0,Volatile Organic Compounds,air,4662.1875182341455,612068582.2492851,kg,7.617099869921629e-06,NEI,2017.0,AIR PROD & CHEM INC,CA,33.8124,-118.2312,Los Angeles,325120,,10204011
110071159424.0,Volatile Organic Compounds,air,362214.1391680574,73779693.73816246,kg,0.00490940150081841,NEI,2017.0,Petro Star Valdez Refinery,AK,61.0849,-146.2538,Chugach Census Area,324110,,1025911
110009059703.0,Volatile Organic Compounds,air,907.18474,125385829.64581259,kg,7.235145650530028e-06,NEI,2017.0,Linde Gas North America LLC,AL,34.62971,-87.01083,Morgan,325120,,10552711
110067040703.0,Volatile Organic Compounds,air,162194.0206157848,1263208477.025752,kg,0.00012839845802624256,NEI,2017.0,CLEAR LAKE PLANT,TX,29.625769,-95.063564,Harris,325120,,10679911
110032913024.0,Volatile Organic Compounds,air,507612.0624504948,946883514.351265,kg,0.0005360871266179698,NEI,2017.0,SUNCOR ENERGY - DENVER REFINERY,CO,39.80311,-104.94954,Adams,324110,,1099511
110002899908.0,Volatile Organic Compounds,air,444293.3729178236,3628354049.397025,kg,0.00012245039124328513,NEI,2017.0,CHEVRON REFINERY,CA,33.9142,-118.427,Los Angeles,48811,,11161011
110041133163.0,Volatile Organic Compounds,air,385064.5651006023,2594695220.9286857,kg,0.00014840454554919985,NEI,2017.0,BAYWAY REFINERY,NJ,40.6362,-74.2343,Union,48811,,12323111
110018885731.0,Volatile Organic Compounds,air,2940.274698090547,629851409.4205782,kg,4.668203728869014e-06,NEI,2017.0,"AIR LIQUIDE LARGE INDUSTRIES U.S., LP",CA,33.91607,-118.41869,Los Angeles,325120,,13490211
110033145353.0,Volatile Organic Compounds,air,298436.25392256625,2404469905.971534,kg,0.00012411727557138302,NEI,2017.0,VALERO REFINING COMPANY - CALIFORNIA,CA,38.07167,-122.13975,Solano,324110,,14217311
110000750358.0,Volatile Organic Compounds,air,814.289022624,46599664.28453625,kg,1.7474139248127927e-05,NEI,2017.0,AIR PRODUCTS MFG CORP,CA,38.52979,-121.3988,Sacramento,325120,,1469911
110043973055.0,Volatile Organic Compounds,air,943.2362615676002,63465892.774041794,kg,1.4862097109794279e-05,NEI,2017.0,Air Liquide,WA,48.4678,-122.554,Skagit,325120,,15622111
110000483487.0,Volatile Organic Compounds,air,218843.53579868336,1444318518.017398,kg,0.00015152027275748547,NEI,2017.0,PHILLIPS 66 COMPANY - SAN FRANCISCO REFINERY,CA,38.043508,-122.253603,Contra Costa,324110,,15733011
110041623641.0,Volatile Organic Compounds,air,4856.392210223997,836901518.7163593,kg,5.802823990178364e-06,NEI,2017.0,AIR LIQUIDE LARGE INDUSTRIES US LP,CA,38.049713,-122.254898,Contra Costa,325120,,15748611
110067130660.0,Volatile Organic Compounds,air,17437.360761436,731550349.1426487,kg,2.383617311080772e-05,NEI,2017.0,LA PORTE SMR,TX,29.646294,-95.05535,Harris,325120,,16636311
110022828813.0,Volatile Organic Compounds,air,24309.1763047672,701526316.904017,kg,3.4651838026617024e-05,NEI,2017.0,Air Products & Chemicals Inc - SMR Facility,LA,30.10894,-90.88534,St. James,325120,,16859811
110056382463.0,Volatile Organic Compounds,air,11972.4073128968,909755505.3576707,kg,1.3160027328650068e-05,NEI,2017.0,Praxair Inc - St Charles Plant,LA,29.99324,-90.38778,St. Charles,325120,,16862611
110066943605.0,Volatile Organic Compounds,air,42165.79386116461,1891235131.0514026,kg,2.2295373625871255e-05,NEI,2017.0,BLUE CUBE OPERATIONS FREEPORT,TX,28.989642,-95.411392,Brazoria,325110,,17735411
110000465719.0,Volatile Organic Compounds,air,414922.8721100307,1722208180.9019105,kg,0.00024092492226621403,NEI,2017.0,VALERO PARTNERS MCKEE,TX,35.959308,-101.889197,Moore,424710,,17906111
110069359063.0,Volatile Organic Compounds,air,580962.1371406864,2870039701.893094,kg,0.0002024230315550968,NEI,2017.0,TORRANCE REFINING COMPANY LLC,CA,33.85726,-118.33718,Los Angeles,324110,,17922111
110024422418.0,Volatile Organic Compounds,air,9416.329836938936,1371807479.88106,kg,6.8641773536293605e-06,NEI,2017.0,LYONDELLBASELL SYNGAS,TX,29.705753,-95.056728,Harris,325120,,4167411
110000481684.0,Volatile Organic Compounds,air,88949.56312214499,99437537.38077267,kg,0.0008945270112787845,NEI,2017.0,SAN JOAQUIN REFINING COMPANY,CA,35.3972,-119.0467,Kern,326211,,4195511
110000476084.0,Volatile Organic Compounds,air,5428.528130571331,747050819.3091918,kg,7.266611574820526e-06,NEI,2017.0,"AIR PRODUCTS AND CHEMICALS, INC.",CA,33.77901,-118.24143,Los Angeles,325120,,4197911
110027982565.0,Volatile Organic Compounds,air,81909.02581765607,214391219.93142825,kg,0.00038205401249106276,NEI,2017.0,"ERGON - WEST VIRGINIA, INC.",WV,40.611,-80.631,Hancock,32411,,4781911
110065364135.0,Volatile Organic Compounds,air,2720.0388205357604,74759070.03691821,kg,3.638406442445747e-05,NEI,2017.0,PRAXAIR INC,CA,34.062648,-117.529208,San Bernardino,325120,,4785511
110000468048.0,Volatile Organic Compounds,air,740177.6900351214,752831285.0800831,kg,0.0009831919909603442,NEI,2017.0,HollyFrontier Cheyenne Refinery,WY,41.1275,-104.7892,Laramie,324110,,4787811
110042005843.0,Volatile Organic Compounds,air,904351.874212402,2135033635.4169197,kg,0.0004235773428627059,NEI,2017.0,BORGER REFINERY,TX,35.698569,-101.363897,Hutchinson,324110,,4861611
110000462758.0,Volatile Organic Compounds,air,13415.188394555404,658434560.8309988,kg,2.0374368528930695e-05,NEI,2017.0,AIR LIQUIDE BAYPORT COMPL,TX,29.621583,-95.045069,Harris,325120,,4925011
110000465103.0,Volatile Organic Compounds,air,670757.0653338939,3013233809.2445636,kg,0.00022260372337387811,NEI,2017.0,VALERO PARTNERS CORPUS CHRISTI WEST,TX,27.817789,-97.487597,Nueces,424710,,17985111
110043815690.0,Volatile Organic Compounds,air,367523.943540292,620591639.6158944,kg,0.0005922154281159269,NEI,2017.0,UNITED REFINING CO/WARREN PLT,PA,41.82992,-79.12443,Warren,324110,,4966711
110043802819.0,Volatile Organic Compounds,air,14971.325924180792,2618752020.771799,kg,5.71696968839701e-06,NEI,2017.0,AIR PRODUCTS PORT ARTHUR FACILITY,TX,29.865286,-93.970633,Jefferson,325120,,5611511
110000501993.0,Volatile Organic Compounds,air,169071.9249206034,1203264716.777202,kg,0.0001405109969262973,NEI,2017.0,VALERO CORPUS CHRISTI REFINING EAST,TX,27.812092,-97.447489,Nueces,324110,,5656011
110038102969.0,Volatile Organic Compounds,air,65890.36785424233,915370305.7026702,kg,7.198219938286351e-05,NEI,2017.0,PHILLIPS 66 COMPANY/LOS ANGELES REFINERY,CA,33.804002,-118.243606,Los Angeles,324110,,5682211
110000490157.0,Volatile Organic Compounds,air,257041.89659670065,2183360269.399546,kg,0.0001177276605236527,NEI,2017.0,BP CHERRY POINT REFINERY,WA,48.861,-122.757,Whatcom,324110,,5763011
110001148598.0,Volatile Organic Compounds,air,305243.4577609556,3567675230.75755,kg,8.555808419146411e-05,NEI,2017.0,Delaware City Refinery,DE,39.588611,-75.635555,New Castle,32411,,588311
110000449113.0,Volatile Organic Compounds,air,22792.9765292014,288518270.2021085,kg,7.900011501259455e-05,NEI,2017.0,Air Products & Chemicals Inc - New Orleans Facility,LA,30.0297,-89.90054,Orleans,325120,,6051911
110006020304.0,Volatile Organic Compounds,air,3402.340121916121,53249922.38040458,kg,6.389380434417585e-05,NEI,2017.0,Air Products & Chemicals Inc - Geismar 1 SMR Facility,LA,30.1825,-90.98694,Ascension,325120,,6116311
110000424611.0,Volatile Organic Compounds,air,386298.9138904952,3878711013.017427,kg,9.959466240048019e-05,NEI,2017.0,Flint Hills Resources Pine Bend Refinery,MN,44.76443,-93.03948,Dakota,324110,,6275811
110040620600.0,Volatile Organic Compounds,air,103704.00476444108,295852896.36009866,kg,0.0003505255687550116,NEI,2017.0,ERGON REFINING INC,MS,32.388369,-90.906375,Warren,32411,,6284911
110000825037.0,Volatile Organic Compounds,air,2265.343272714805,398846483.46440274,kg,5.679737359191205e-06,NEI,2017.0,TEXAS CITY,TX,29.378033,-94.900975,Galveston,325120,,6420711
110000476235.0,Volatile Organic Compounds,air,213470.16947503312,1895241947.2972476,kg,0.0001126347851151443,NEI,2017.0,PHILLIPS 66 CO/LA REFINERY WILMINGTON PL,CA,33.776935,-118.288725,Los Angeles,324110,,6500611
110020506460.0,Volatile Organic Compounds,air,1196611.5557067648,4585778846.353054,kg,0.00026093965622838475,NEI,2017.0,CHEVRON PRODUCTS COMPANY,CA,37.938779,-122.396453,Contra Costa,324110,,6530111
110000483245.0,Volatile Organic Compounds,air,1048581.1248341585,3333514199.5095005,kg,0.00031455726961908506,NEI,2017.0,SHELL MARTINEZ REFINERY,CA,38.016594,-122.115392,Contra Costa,324110,,6531011
110005184497.0,Volatile Organic Compounds,air,3142.850813256,187543539.23557785,kg,1.675797964603937e-05,NEI,2017.0,FREEPORT HYCO PLANT,TX,28.981494,-95.385706,Brazoria,325120,,6598211
110000374087.0,Volatile Organic Compounds,air,405764.1882129101,1314275754.3630772,kg,0.00030873596112982474,NEI,2017.0,"Valero Refining Co. (Prev. Premcor Refining, Prev. Williams Refining Llc)",TN,35.0875,-90.0864,Shelby,32411,,7156111
110022294569.0,Volatile Organic Compounds,air,273602.7679758497,1774697908.5917869,kg,0.00015416864281592128,NEI,2017.0,Paulsboro Refining Company LLC,NJ,39.8401,-75.2574,Gloucester,324110,,7201311
110000597471.0,Volatile Organic Compounds,air,153169.1293914145,97729100.53317891,kg,0.0015672827085870269,NEI,2017.0,Calumet Cotton Valley Refining LLC - Cotton Valley Refinery,LA,32.79892,-93.41176,Webster,324110,,7205811
110002321381.0,Volatile Organic Compounds,air,3308.189672772206,1778425093.9303381,kg,1.860179371097982e-06,NEI,2017.0,PRAXAIR INC,IN,41.6677,-87.4686,Lake,32512,,7250911
110000428421.0,Volatile Organic Compounds,air,499951.2826583454,629603017.5307117,kg,0.0007940738350002557,NEI,2017.0,EXXONMOBIL BILLINGS REFINERY,MT,45.813904,-108.433295,Yellowstone,324110,,7284611
110015682830.0,Volatile Organic Compounds,air,1642483.37294272,1987682540.0536292,kg,0.0008263308349523484,NEI,2017.0,PONCA CITY PIPELINE ACTIVITIES,OK,36.68016,-97.09693,Kay,486110,,10722511
110000540317.0,Volatile Organic Compounds,air,584614.6896838153,425948653.60300124,kg,0.0013725003817683064,NEI,2017.0,Calumet Shreveport Refining LLC - Calumet Shreveport Refinery,LA,32.46908,-93.79286,Caddo,324110,,7381811
110000472630.0,Volatile Organic Compounds,air,378598.355894605,612943938.4730549,kg,0.0006176720775439208,NEI,2017.0,HollyFrontier - Artesia Refinery,NM,32.848593,-104.394383,Eddy,32411,,7399911
110000367102.0,Volatile Organic Compounds,air,308614.5044601062,805982118.9162704,kg,0.0003829049022515184,NEI,2017.0,Hunt Refining Company,AL,33.201,-87.607,Tuscaloosa,324110,,7441411
110000448659.0,Volatile Organic Compounds,air,359245.70476049784,2517150143.4331474,kg,0.00014271921986764037,NEI,2017.0,Valero Partners LA LLC - St Charles Terminal,LA,29.99329,-90.39859,St. Charles,324110,,17652411
110001538872.0,Volatile Organic Compounds,air,1322.757649177399,36936099.044902995,kg,3.5812056047644074e-05,NEI,2017.0,PRAXAIR INC,NJ,39.68935,-75.48763,Salem,325120,,7479711
110027373045.0,Volatile Organic Compounds,air,143204.46096405992,1129127578.0089772,kg,0.00012682752928289682,NEI,2017.0,ASCEND PERFORMANCE MATERIALS OPERATIONS,FL,30.59903,-87.25021,Escambia,325220,,751411
110005191078.0,Volatile Organic Compounds,air,2377.559974272433,375278617.8295859,kg,6.335452811095365e-06,NEI,2017.0,HYDROGEN PLANT INDUST GAS,TX,27.815667,-97.477658,Nueces,325120,,7680711
110043806085.0,Volatile Organic Compounds,air,510958.3384385998,791837485.1539161,kg,0.000645281826155629,NEI,2017.0,BILLINGS REFINERY,MT,45.780642,-108.489063,Yellowstone,324110,,7765411
110012710423.0,Volatile Organic Compounds,air,2331.160952022803,360844862.1552483,kg,6.460285836132689e-06,NEI,2017.0,AIR PRODUCTS BAYTOWN II PLANT,TX,29.758742,-95.022772,Harris,325120,,7908111
110000597499.0,Volatile Organic Compounds,air,252527.0747207765,79334077.46358846,kg,0.0031830845305622604,NEI,2017.0,Calumet Princeton Refining LP - Calumet Princeton Refinery,LA,32.59004,-93.51317,Bossier,324110,,7929011
110000437974.0,Volatile Organic Compounds,air,27210.272659054142,74875379.07713653,kg,0.0003634074777908256,NEI,2017.0,Evonik Corp,IL,40.564399,-89.724856,Peoria,325613,,7940111
110041962873.0,Volatile Organic Compounds,air,1054098.4986242382,4257194058.865821,kg,0.00024760405188225447,NEI,2017.0,ConocoPhillips Co,IL,38.842222,-90.062885,Madison,324110,,7940411
110000453697.0,Volatile Organic Compounds,air,1944322.6418844664,798107203.6031533,kg,0.002436167263127788,NEI,2017.0,WYNNEWOOD REFINERY,OK,34.63533,-97.16859,Garvin,324110,,7996711
110013703206.0,Volatile Organic Compounds,air,625045.6259314056,1186928462.449244,kg,0.0005266076648306293,NEI,2017.0,CRRM Refinery,KS,37.047556,-95.606106,Montgomery,324110,,8066611
110000446134.0,Volatile Organic Compounds,air,730022.4241129493,1659334375.4660707,kg,0.0004399489547776662,NEI,2017.0,HollyFrontier El Dorado Refinery,KS,37.794007,-96.87414,Butler,324110,,8066911
110016678969.0,Volatile Organic Compounds,air,248476.8524074557,1198986361.741345,kg,0.0002072390982384328,NEI,2017.0,CHS McPherson Refinery,KS,38.347278,-97.673846,McPherson,324110,,8067211
110000606746.0,Volatile Organic Compounds,air,530129.7630313905,999784769.5067706,kg,0.0005302438876848688,NEI,2017.0,VALERO ARDMORE REFINERY,OK,34.20569,-97.10417,Carter,324110,,8071911
110000595348.0,Volatile Organic Compounds,air,198345.37472657615,1754068359.272163,kg,0.00011307733457370956,NEI,2017.0,CITGO Petroleum Corp,IL,41.647141,-88.054474,Will,324110,,8191811
110041135580.0,Volatile Organic Compounds,air,341022.35986425926,4928819576.2740555,kg,6.918945897428352e-05,NEI,2017.0,Marathon Petroleum Company LP - Louisiana Refining Division - Garyville Refinery,LA,30.06213,-90.59537,St. John the Baptist,324110,,8241011
110000377477.0,Volatile Organic Compounds,air,2495669.1206343826,4917844627.827805,kg,0.0005074721365763667,NEI,2017.0,"CHEVRON TEXACO PRODUCTS COMPANY, PASCAGO",MS,30.343733,-88.4938,Jackson,32411,,8384311
110000428500.0,Volatile Organic Compounds,air,125096.65244599748,316229219.8381502,kg,0.00039558853071839284,NEI,2017.0,CALUMET MONTANA REFINING,MT,47.523997,-111.29147,Cascade,324110,,8385311
110000595124.0,Volatile Organic Compounds,air,695981.8836851113,898088548.9435643,kg,0.0007749590889493088,NEI,2017.0,CHS INC REFINERY LAUREL,MT,45.65922,-108.76778,Yellowstone,324110,,8385711
110046264760.0,Volatile Organic Compounds,air,13847.744596940867,611464633.9591496,kg,2.2646844687122165e-05,NEI,2017.0,Praxair Inc - Geismar Plant,LA,30.19796,-91.01308,Ascension,325120,,8465711
110043813816.0,Volatile Organic Compounds,air,295924.8984052055,865758394.8388094,kg,0.00034181002479369787,NEI,2017.0,Saint Paul Park Refining Co LLC,MN,44.8522,-93.0038,Washington,324110,,8498611
110017413299.0,Volatile Organic Compounds,air,109206.52794597636,680665402.3732907,kg,0.00016044083857531704,NEI,2017.0,Kenai Refinery,AK,60.6853,-151.3701,Kenai Peninsula,324110,,863411
110056955610.0,Volatile Organic Compounds,air,5841.36254086,440361238.219655,kg,1.3264933499769777e-05,NEI,2017.0,LONGVIEW POX ASU PLT,TX,32.448033,-94.687231,Harrison,325120,,9123011
110022411530.0,Volatile Organic Compounds,air,2836.8574004540005,1497111912.073406,kg,1.8948866665051988e-06,NEI,2017.0,TEXAS CITY HYDROGEN COMPLEX,TX,29.366592,-94.938039,Galveston,325120,,9132211
110016734300.0,Volatile Organic Compounds,air,5630.231621950321,320300616.5557129,kg,1.7577960612420495e-05,NEI,2017.0,Linde Gas North America LLC,IL,41.642514,-88.056193,Will,325120,,9679911
110007235269.0,Volatile Organic Compounds,air,46805.741754190414,530185668.64300984,kg,8.828179357240632e-05,NEI,2017.0,Ascend Performance Materials LLC,AL,34.63431,-87.02182,Morgan,325199,,985511
110017419667.0,Volatile Organic Compounds,air,702487.6769548918,644581388.8079883,kg,0.0010898354950241247,NEI,2017.0,LION OIL COMPANY,AR,33.195555,-92.681111,Union,32411,,993611
110011942862.0,PM10-PM2.5,air,1614.7888372000016,95849323.8444681,kg,1.684715940010461e-05,NEI,2017.0,"Matheson Tri-Gas, Inc. (0302020242)",OH,40.715,-84.12361,Allen,325120,,16535711
110042061238.0,PM10-PM2.5,air,47890.826735444,1144915111.2001283,kg,4.182915070903698e-05,NEI,2017.0,MARATHON EL PASO REFINERY,TX,31.766622,-106.401514,El Paso,324110,,6476111
110000398338.0,PM10-PM2.5,air,186418.0722664245,4698091038.888697,kg,3.967953594839672e-05,NEI,2017.0,BP Products North America Inc Whiting R,IN,41.663055,-87.479643,Lake,32411,,7247711
110038160584.0,PM10-PM2.5,air,385.9824510402623,37559973.76287843,kg,1.0276430262625461e-05,NEI,2017.0,Martin Operating Partnership L.P.,AR,33.363731,-92.714928,Union,324191,,17077411
110070261635.0,PM10-PM2.5,air,99.79032140000004,35853215.08689374,kg,2.7833018924006823e-06,NEI,2017.0,Matheson Gas Anacortes,WA,48.4676,-122.555,Skagit,325120,,16856811
110055569567.0,PM10-PM2.5,air,1270.058635999998,1169575847.1320393,kg,1.085913871352898e-06,NEI,2017.0,Air Products & Chemicals Inc - Norco Hydrogen Plant,LA,29.99634,-90.38633,St. Charles,325120,,16965911
110002305443.0,PM10-PM2.5,air,675.0778955320402,612068582.2492851,kg,1.102944857994839e-06,NEI,2017.0,AIR PROD & CHEM INC,CA,33.8124,-118.2312,Los Angeles,325120,,10204011
110071159424.0,PM10-PM2.5,air,94862.58461079394,73779693.73816246,kg,0.001285754654220344,NEI,2017.0,Petro Star Valdez Refinery,AK,61.0849,-146.2538,Chugach Census Area,324110,,1025911
110009059703.0,PM10-PM2.5,air,480.807730763052,125385829.64581259,kg,3.834625747751785e-06,NEI,2017.0,Linde Gas North America LLC,AL,34.62971,-87.01083,Morgan,325120,,10552711
110067040703.0,PM10-PM2.5,air,1260.1058649531333,1263208477.025752,kg,9.975438637967947e-07,NEI,2017.0,CLEAR LAKE PLANT,TX,29.625769,-95.063564,Harris,325120,,10679911
110032913024.0,PM10-PM2.5,air,21544.081753170904,946883514.351265,kg,2.275262102110979e-05,NEI,2017.0,SUNCOR ENERGY - DENVER REFINERY,CO,39.80311,-104.94954,Adams,324110,,1099511
110002899908.0,PM10-PM2.5,air,11398.136069531669,3628354049.397025,kg,3.141406796127257e-06,NEI,2017.0,CHEVRON REFINERY,CA,33.9142,-118.427,Los Angeles,48811,,11161011
110041133163.0,PM10-PM2.5,air,50450.49758163528,2594695220.9286857,kg,1.944370852295253e-05,NEI,2017.0,BAYWAY REFINERY,NJ,40.6362,-74.2343,Union,48811,,12323111
110018885731.0,PM10-PM2.5,air,73.85655639487868,629851409.4205782,kg,1.1726028598208876e-07,NEI,2017.0,"AIR LIQUIDE LARGE INDUSTRIES U.S., LP",CA,33.91607,-118.41869,Los Angeles,325120,,13490211
110033145353.0,PM10-PM2.5,air,139.88787783615408,2404469905.971534,kg,5.8178261033228415e-08,NEI,2017.0,VALERO REFINING COMPANY - CALIFORNIA,CA,38.07167,-122.13975,Solano,324110,,14217311
110000750358.0,PM10-PM2.5,air,0.0,46599664.28453625,kg,0.0,NEI,2017.0,AIR PRODUCTS MFG CORP,CA,38.52979,-121.3988,Sacramento,325120,,1469911
110043973055.0,PM10-PM2.5,air,0.0,63465892.774041794,kg,0.0,NEI,2017.0,Air Liquide,WA,48.4678,-122.554,Skagit,325120,,15622111
110000483487.0,PM10-PM2.5,air,5897.613770785232,1444318518.017398,kg,4.083319362879061e-06,NEI,2017.0,PHILLIPS 66 COMPANY - SAN FRANCISCO REFINERY,CA,38.043508,-122.253603,Contra Costa,324110,,15733011
110041623641.0,PM10-PM2.5,air,298.1558537437031,836901518.7163593,kg,3.562615756762098e-07,NEI,2017.0,AIR LIQUIDE LARGE INDUSTRIES US LP,CA,38.049713,-122.254898,Contra Costa,325120,,15748611
